City_ID,City,Lat,Lng,Max Temp,Humidity,Cloudiness,Wind Speed,Country,Date
0,filadelfia,39.9523,-75.1638,15.9,69,56,2.2,US,1683432184
1,micheweni,-4.9667,39.8333,25.67,82,24,3.43,TZ,1683432382
2,tiksi,71.6872,128.8694,-12.22,76,95,3.33,RU,1683432382
3,margaret river,-33.95,115.0667,17.88,68,94,5.87,AU,1683432382
4,piacabucu,-10.4056,-36.4344,24.15,85,11,0.51,BR,1683432382
5,albany,42.6001,-73.9662,12.23,74,25,0.89,US,1683432228
6,pervomayskoye,43.919,46.7102,14.47,77,100,6.55,RU,1683432383
7,geraldton,-28.7667,114.6,25.23,36,40,11.83,AU,1683431960
8,hamilton,39.1834,-84.5333,18.47,79,0,3.6,US,1683431746
9,edinburgh of the seven seas,-37.0676,-12.3116,15.18,72,83,5.85,SH,1683432384
10,waitangi,-43.9535,-176.5597,15.46,89,100,2.68,NZ,1683432384
11,vorgashor,67.5833,63.95,-6.91,88,100,4.9,RU,1683432384
12,petropavlovsk-kamchatsky,53.0452,158.6483,9.33,37,75,5.0,RU,1683432384
13,zhumysker,49.3333,49.4,11.76,77,94,7.37,KZ,1683432385
14,puerto ayora,-0.7393,-90.3518,26.42,95,100,2.68,EC,1683432385
15,port lincoln,-34.7333,135.8667,13.67,57,100,5.35,AU,1683432385
16,adamstown,-25.066,-130.1015,22.88,75,99,6.69,PN,1683432385
17,whitehorse,60.7161,-135.0538,14.43,23,75,4.12,CA,1683432386
18,port-aux-francais,-49.35,70.2167,3.83,65,59,15.12,TF,1683432386
19,nemuro,43.3236,145.575,4.15,69,70,3.14,JP,1683432386
20,puerto natales,-51.7236,-72.4875,4.25,86,72,2.76,CL,1683432387
21,sandnessjoen,66.0217,12.6316,4.8,64,100,0.45,NO,1683432387
22,mount isa,-20.7333,139.5,26.87,22,58,8.75,AU,1683432388
23,cova figueira,14.8905,-24.2934,19.85,79,0,8.27,CV,1683432388
24,bafoulabe,13.8065,-10.8321,32.62,32,79,1.02,ML,1683432389
25,flying fish cove,-10.4217,105.6791,28.82,78,75,4.12,CX,1683432390
26,aasiaat,68.7098,-52.8699,-3.19,96,100,1.99,GL,1683432390
27,klyuchi,52.2667,79.1667,22.34,28,2,4.01,RU,1683432391
28,constantia,44.1833,28.65,9.38,80,14,5.75,RO,1683432247
29,punta arenas,-53.15,-70.9167,7.06,65,0,9.26,CL,1683432391
30,olonkinbyen,70.9221,-8.7187,-1.02,87,98,5.69,SJ,1683432391
31,ribeira grande,38.5167,-28.7,18.21,96,100,9.83,PT,1683432392
32,grytviken,-54.2811,-36.5092,2.66,84,79,10.43,GS,1683432392
33,hobyo,5.3505,48.5268,28.35,74,89,9.31,SO,1683432392
34,zhangye,38.9342,100.4517,16.0,36,53,4.42,CN,1683432392
35,hawaiian paradise park,19.5933,-154.9731,23.73,77,75,4.63,US,1683432393
36,ushuaia,-54.8,-68.3,5.81,70,0,1.54,AR,1683432393
37,cannonvale,-20.2833,148.7,24.66,62,43,5.34,AU,1683432394
38,stanley,54.868,-1.6985,11.27,95,100,2.06,GB,1683432394
39,bethel,41.3712,-73.414,14.97,64,29,1.95,US,1683432138
40,sorong,-0.8833,131.25,29.43,71,45,2.98,ID,1683432394
41,nova sintra,14.8667,-24.7167,19.86,77,0,8.62,CV,1683432395
42,baturaja,-4.1333,104.1667,28.18,72,100,1.51,ID,1683432395
43,sitia,35.2,26.0986,17.21,79,20,10.79,GR,1683432395
44,blackmans bay,-43.0167,147.3167,10.07,69,93,3.34,AU,1683432395
45,namibe,-15.1961,12.1522,23.05,69,6,3.2,AO,1683432396
46,calatayud,41.3535,-1.6432,12.29,88,53,0.51,ES,1683432396
47,okhotsk,59.3833,143.3,4.72,70,21,3.73,RU,1683432112
48,inirida,3.8653,-67.9239,25.4,84,67,0.39,CO,1683432396
49,invercargill,-46.4,168.35,15.04,77,48,1.66,NZ,1683432174
50,sitka,57.0531,-135.33,8.94,66,40,7.72,US,1683432397
51,deqen,29.9618,90.7188,10.33,37,42,3.98,CN,1683432397
52,kavieng,-2.5744,150.7967,29.01,73,100,2.79,PG,1683432397
53,yellowknife,62.456,-114.3525,15.31,38,40,6.17,CA,1683432398
54,alappuzha,9.49,76.3264,29.44,76,100,4.35,IN,1683432398
55,utrik,11.2278,169.8474,27.45,79,94,7.96,MH,1683432398
56,hadibu,12.65,54.0333,28.89,70,32,2.4,YE,1683432399
57,alofi,-19.0595,-169.9187,26.94,83,72,3.6,NU,1683432399
58,nguigmi,14.2495,13.1092,27.24,17,49,6.84,NE,1683432399
59,remire-montjoly,4.9167,-52.2667,26.02,94,75,2.57,GF,1683431905
60,chake chake,-5.2459,39.7666,24.84,85,17,2.71,TZ,1683432400
61,richards bay,-28.783,32.0377,21.9,79,61,5.13,ZA,1683432313
62,seguela,7.9611,-6.6731,23.5,82,100,2.63,CI,1683432400
63,nagqu,31.5,92.0,3.65,48,92,6.44,CN,1683432401
64,udachny,66.4167,112.4,-7.45,71,100,8.57,RU,1683432401
65,chonchi,-42.6128,-73.8092,8.95,95,18,1.8,CL,1683432401
66,iqaluit,63.7506,-68.5145,-8.79,93,22,5.1,CA,1683432401
67,tirlyanskiy,54.2109,58.5806,16.7,36,4,2.93,RU,1683432402
68,kodiak,57.79,-152.4072,3.73,87,100,3.6,US,1683432402
69,la serena,-29.9078,-71.2542,12.73,94,75,0.51,CL,1683432324
70,konongo,6.6167,-1.2167,22.47,99,100,0.62,GH,1683432402
71,talnakh,69.4865,88.3972,-10.44,89,61,0.84,RU,1683432403
72,dudinka,69.4058,86.1778,-10.21,92,94,0.69,RU,1683432403
73,west island,-12.1568,96.8225,29.99,79,100,3.09,CC,1683432403
74,isafjordur,66.0755,-23.124,4.45,94,100,2.73,IS,1683432403
75,luderitz,-26.6481,15.1594,12.95,70,0,4.22,NA,1683432404
76,lihue,21.9789,-159.3672,26.58,72,100,7.2,US,1683432404
77,bilibino,68.0546,166.4372,-1.41,86,99,2.09,RU,1683432404
78,capri,40.5507,14.2426,15.77,94,16,1.83,IT,1683432405
79,arraial do cabo,-22.9661,-42.0278,23.45,82,84,2.8,BR,1683432405
80,kawasaki,35.5206,139.7172,22.21,94,75,8.23,JP,1683432386
81,port elizabeth,-33.918,25.5701,16.84,87,44,3.58,ZA,1683432405
82,hovd,48.0056,91.6419,1.58,100,100,1.26,MN,1683432406
83,santiago de cao,-7.9589,-79.2392,23.07,83,100,3.6,PE,1683432406
84,pimentel,-6.8367,-79.9342,24.16,78,0,3.09,PE,1683432406
85,port mathurin,-19.6833,63.4167,26.12,71,4,8.72,MU,1683432124
86,port pirie,-33.1833,138.0167,14.11,52,33,6.02,AU,1683432407
87,bredasdorp,-34.5322,20.0403,14.89,80,95,0.87,ZA,1683432407
88,rio branco,-9.9747,-67.81,23.34,100,20,0.0,BR,1683432407
89,tamanrasset,22.785,5.5228,22.95,12,0,5.14,DZ,1683432408
90,rangpur,25.75,89.25,32.26,44,0,2.32,BD,1683432408
91,ilulissat,69.2167,-51.1,-0.99,100,100,0.0,GL,1683432409
92,thompson,55.7435,-97.8558,7.68,94,9,3.02,CA,1683432409
93,el calafate,-50.3408,-72.2768,5.19,66,24,3.41,AR,1683432409
94,tanah rata,4.475,101.3704,23.15,81,100,0.99,MY,1683432282
95,papatowai,-46.5619,169.4708,14.44,80,12,3.08,NZ,1683432410
96,hermosillo,29.0667,-110.9667,26.58,28,0,2.06,MX,1683432410
97,extrema,-22.8547,-46.3183,15.95,96,16,1.65,BR,1683432411
98,wailua homesteads,22.0669,-159.378,26.24,72,100,7.2,US,1683432411
99,tawau,4.2498,117.8871,33.07,70,80,0.68,MY,1683432376
100,iskateley,67.6803,53.1512,-7.01,87,47,5.81,RU,1683432412
101,talcahuano,-36.7167,-73.1167,12.82,94,100,0.51,CL,1683432412
102,hermanus,-34.4187,19.2345,14.33,83,99,2.78,ZA,1683432413
103,new norfolk,-42.7826,147.0587,10.72,60,79,0.89,AU,1683432413
104,thinadhoo,0.5333,72.9333,28.97,74,100,8.27,MV,1683432414
105,natchez,31.5604,-91.4032,20.12,88,0,2.06,US,1683432414
106,brosteni,47.2333,25.7,6.34,85,100,1.7,RO,1683432414
107,sidareja,-7.4846,108.7923,30.79,68,100,1.44,ID,1683432414
108,qaqortoq,60.7167,-46.0333,1.32,84,100,1.05,GL,1683432415
109,ust-nera,64.5667,143.2,2.58,77,100,2.59,RU,1683432415
110,forster,-32.1667,152.5167,18.54,55,43,3.58,AU,1683432415
111,al bawiti,28.3492,28.8659,16.71,60,0,3.3,EG,1683432415
112,balabac,7.9868,117.0645,27.29,82,99,4.68,PH,1683432416
113,eenhana,-17.4667,16.3333,16.1,48,10,2.16,NA,1683432416
114,afaahiti,-17.75,-149.2833,27.93,81,89,6.74,PF,1683432416
115,ascension,30.2169,-90.9001,20.15,98,40,0.0,US,1683432417
116,moussoro,13.6408,16.4901,27.51,16,83,4.78,TD,1683432417
117,belalcazar,2.6547,-75.9928,13.88,94,91,1.81,CO,1683432417
118,nar'yan-mar,67.6713,53.087,-6.85,87,51,5.85,RU,1683432417
119,nizhnesortymskiy,62.4397,71.7603,11.62,65,93,5.04,RU,1683432418
120,olovyannaya,50.95,115.5667,18.84,28,13,9.96,RU,1683432418
121,port douglas,-16.4833,145.4667,26.58,71,90,4.99,AU,1683432418
122,letlhakeng,-24.0944,25.0298,16.88,47,61,3.32,BW,1683432418
123,port alfred,-33.5906,26.891,13.99,91,44,0.45,ZA,1683432137
124,bathurst,-33.4166,149.5806,7.68,69,64,2.68,AU,1683432419
125,perelyub,51.8667,50.3667,6.84,80,99,5.69,RU,1683432419
126,nyurba,63.2842,118.3319,-0.99,79,100,5.56,RU,1683432419
127,severo-yeniseyskiy,60.3725,93.0408,3.61,81,100,1.89,RU,1683432420
128,happy valley-goose bay,53.3168,-60.3315,3.73,80,83,0.79,CA,1683432420
129,alice springs,-23.7,133.8833,17.75,36,0,7.72,AU,1683432420
130,tazovsky,67.4667,78.7,-7.76,87,100,4.6,RU,1683432420
131,vuktyl,63.8567,57.3094,-1.9,94,100,3.81,RU,1683432421
132,mizdah,31.4451,12.9801,18.13,31,27,1.4,LY,1683432421
133,minas de marcona,-15.2119,-75.1103,15.05,89,62,5.37,PE,1683432421
134,vila franca do campo,37.7167,-25.4333,18.23,94,98,5.89,PT,1683432422
135,nabire,-3.3667,135.4833,29.81,75,73,2.58,ID,1683432422
136,lima,-12.0432,-77.0282,21.61,81,0,4.12,PE,1683432018
137,vilyuchinsk,52.9306,158.4028,10.15,74,86,3.45,RU,1683432422
138,howard springs,-12.497,131.047,34.34,47,5,5.28,AU,1683432423
139,nganjuk,-7.6051,111.9035,30.18,72,48,1.92,ID,1683432423
140,keflavik,64.0049,-22.5624,9.24,87,75,5.66,IS,1683432423
141,al kharj,24.155,47.3346,27.32,16,1,3.78,SA,1683431999
142,antonio enes,-16.2325,39.9086,20.24,90,5,2.81,MZ,1683432424
143,vanimo,-2.6741,141.3028,30.29,69,46,3.7,PG,1683432424
144,wolmaransstad,-27.1974,25.9831,15.39,60,83,0.64,ZA,1683432424
145,al jawf,29.5,38.75,19.19,37,1,2.14,SA,1683432425
146,al burayqah,30.4062,19.5739,17.1,76,0,2.52,LY,1683432425
147,parang,7.3704,124.2697,32.43,61,92,0.69,PH,1683432425
148,mexico,15.0646,120.7198,33.84,38,6,3.88,PH,1683432103
149,tura,25.5198,90.2201,31.87,39,0,2.98,IN,1683432426
150,katsuura,35.1333,140.3,21.07,89,100,8.48,JP,1683432426
151,lewisburg,35.4492,-86.7889,21.36,82,75,1.54,US,1683432182
152,broken hill,-31.95,141.4333,12.75,35,0,9.38,AU,1683432426
153,touros,-5.1989,-35.4608,23.98,87,10,4.36,BR,1683432427
154,jiehu,35.5428,118.455,22.83,24,1,8.92,CN,1683432427
155,atafu village,-8.5421,-172.5159,29.14,75,1,4.59,TK,1683432427
156,brisas de zicatela,15.8369,-97.0419,29.29,79,100,2.57,MX,1683432428
157,enriquillo,17.9,-71.2333,24.13,79,7,3.32,DO,1683432428
158,leh,34.1667,77.5833,1.1,71,98,3.09,IN,1683432428
159,port augusta,-32.5,137.7667,16.03,38,40,7.36,AU,1683432428
160,fuerte olimpo,-21.0415,-57.8738,20.04,87,100,1.48,PY,1683432429
161,kapa'a,22.0752,-159.319,26.99,71,100,7.2,US,1683432429
162,lobujya,27.95,86.8167,-4.87,67,1,3.37,NP,1683432429
163,palafrugell,41.9174,3.1631,16.37,53,92,2.56,ES,1683432429
164,gadzhiyevo,69.2551,33.3362,-0.9,88,38,3.04,RU,1683432430
165,beaumont,30.0861,-94.1019,24.99,82,40,5.14,US,1683432430
166,hithadhoo,-0.6,73.0833,29.04,74,100,8.34,MV,1683432430
167,nuuk,64.1835,-51.7216,0.34,93,100,7.6,GL,1683432431
168,jamestown,42.097,-79.2353,12.8,70,0,2.57,US,1683432273
169,longyearbyen,78.2186,15.6401,-3.09,93,75,2.06,SJ,1683432431
170,saipan,15.1355,145.701,30.39,100,75,7.72,MP,1683432431
171,arys,42.4252,68.795,17.81,48,100,0.64,KZ,1683432432
172,kilju,40.9642,129.3278,17.45,30,100,4.43,KP,1683432432
173,saldanha,-33.0117,17.9442,14.84,91,16,1.94,ZA,1683432432
174,lebu,-37.6167,-73.65,11.38,93,16,5.66,CL,1683432433
175,satana,20.5833,74.2,30.98,32,4,2.9,IN,1683432433
176,fort bragg,35.139,-79.006,19.91,60,0,4.63,US,1683432434
177,ancud,-41.8697,-73.8203,8.67,90,11,2.57,CL,1683432147
178,genhe,50.7833,121.5167,16.57,19,8,5.71,CN,1683432434
179,shihezi,44.3,86.0333,13.4,28,94,0.4,CN,1683432435
180,belmonte,-15.8631,-38.8828,23.67,86,2,4.3,BR,1683432435
181,coyhaique,-45.5752,-72.0662,3.97,93,0,1.54,CL,1683432435
182,xilin hot,43.9667,116.0333,13.0,18,0,3.95,CN,1683432436
183,tazacorte,28.629,-17.9293,20.54,70,40,6.69,ES,1683432436
184,tshabong,-26.05,22.45,18.73,47,97,2.66,BW,1683432437
185,dhidhdhoo,6.8833,73.1,29.47,65,93,7.7,MV,1683432339
186,kill devil hills,36.0307,-75.676,15.55,73,40,2.06,US,1683432406
187,hamina,60.5697,27.1979,2.6,63,4,2.22,FI,1683432437
188,kruisfontein,-34.0033,24.7314,12.71,78,51,3.21,ZA,1683432438
189,sao gabriel da cachoeira,-0.1303,-67.0892,23.23,96,94,0.87,BR,1683432438
190,hegang,47.4,130.3667,19.57,16,63,2.1,CN,1683432439
191,yuzhno-kurilsk,44.0306,145.8556,5.84,62,33,1.82,RU,1683432439
192,carnarvon,-24.8667,113.6333,25.37,48,22,2.13,AU,1683432439
193,shenjiamen,29.9576,122.298,15.89,84,100,10.28,CN,1683432439
194,elverum,60.8819,11.5623,-0.4,88,56,0.42,NO,1683432440
195,banjarmasin,-3.3244,114.591,32.08,58,86,1.42,ID,1683432144
196,turbo,8.0937,-76.7269,26.68,89,100,3.46,CO,1683432440
197,qamdo,31.1667,97.2333,8.98,22,83,3.43,CN,1683432441
198,yoloten,37.2989,62.3597,19.61,39,95,5.92,TM,1683432441
199,cabimas,10.3883,-71.4399,27.23,76,53,3.24,VE,1683432441
200,rye,40.9807,-73.6837,17.73,77,75,2.57,US,1683432442
201,alma,48.5501,-71.6491,7.95,69,5,2.69,CA,1683432430
202,usogorsk,63.4106,48.6872,-3.3,83,100,4.87,RU,1683432442
203,vernon,50.2581,-119.2691,14.2,63,100,0.51,CA,1683432315
204,santo antonio,-6.3106,-35.4789,21.11,96,21,3.02,BR,1683432443
205,haiku-pauwela,20.9219,-156.3051,23.91,67,20,10.29,US,1683432443
206,kayangel,8.0823,134.7173,28.81,73,5,4.05,PW,1683432444
207,sao joao da barra,-21.6403,-41.0511,21.56,90,61,2.66,BR,1683432444
208,weno,7.4515,151.8468,31.97,70,40,2.06,FM,1683432444
209,kosong,38.3788,128.4676,12.78,56,100,2.59,KR,1683432444
210,klaksvik,62.2266,-6.589,8.51,98,99,8.95,FO,1683432445
211,polyarnyy,69.1989,33.4478,-0.43,88,27,3.02,RU,1683432445
212,tarko-sale,64.9225,77.785,0.84,98,100,6.56,RU,1683432445
213,ola,59.5833,151.2833,3.14,79,10,2.43,RU,1683432446
214,kaiapoi,-43.3783,172.6401,16.16,84,100,1.03,NZ,1683432446
215,konstantinovka,49.6167,127.9833,20.36,16,46,3.69,RU,1683432446
216,tsiombe,-25.3,45.4833,19.61,84,4,1.91,MG,1683432447
217,khandyga,62.6667,135.6,3.26,98,100,4.7,RU,1683432447
218,saint-philippe,-21.3585,55.7679,23.77,76,48,4.92,RE,1683432447
219,meximieux,45.9084,5.1953,16.33,92,94,2.07,FR,1683432426
220,ikom,5.9667,8.7063,22.68,95,98,1.22,NG,1683432442
221,kailua-kona,19.6406,-155.9956,26.98,80,75,3.6,US,1683432448
222,port-vila,-17.7338,168.3219,27.78,74,40,4.63,VU,1683432449
223,kapuskasing,49.4169,-82.4331,10.22,86,100,1.39,CA,1683432449
224,anna regina,7.2644,-58.5077,25.23,87,95,2.61,GY,1683432449
225,banda aceh,5.5577,95.3222,28.76,76,92,5.38,ID,1683432450
226,georgetown,5.4112,100.3354,30.96,79,20,2.06,MY,1683432450
227,malango,-2.9627,119.9001,25.01,91,81,1.29,ID,1683432450
228,quellon,-43.1167,-73.6167,9.14,93,0,2.57,CL,1683432450
229,dunedin,-45.8742,170.5036,12.67,99,24,4.02,NZ,1683432160
230,zaozersk,69.4005,32.4476,-0.78,88,38,3.04,RU,1683432451
231,springbok,-29.6643,17.8865,7.24,75,0,1.62,ZA,1683432451
232,pandan,14.0453,124.1694,30.17,69,19,2.03,PH,1683432452
233,la ronge,55.1001,-105.2842,8.14,49,20,1.03,CA,1683432192
234,naze,28.3667,129.4833,21.94,87,100,8.94,JP,1683432452
235,kalmunai,7.4167,81.8167,26.54,82,100,1.86,LK,1683432453
236,angaur state,6.906,134.13,28.65,66,32,3.83,PW,1683432453
237,saint-francois,46.4154,3.9054,13.15,94,0,1.54,FR,1683432454
238,cabedelo,-6.9811,-34.8339,24.37,81,33,4.14,BR,1683432454
239,pemba,-12.974,40.5178,23.13,84,10,6.22,MZ,1683432454
240,minna,9.6139,6.5569,24.9,73,49,1.92,NG,1683432455
241,mount pearl,47.5166,-52.7813,2.14,97,100,4.12,CA,1683432308
242,lazaro cardenas,17.9583,-102.2,26.49,79,0,1.89,MX,1683432237
243,ji'an,27.1172,114.9793,18.79,84,100,4.27,CN,1683432455
244,la passe,45.5549,-0.8967,15.13,95,36,3.52,FR,1683432456
245,kerikeri,-35.2268,173.9474,18.86,90,100,4.14,NZ,1683432456
246,pocoes,-14.5297,-40.3653,16.33,98,2,1.9,BR,1683432456
247,paoy paet,13.6561,102.5625,38.21,36,68,5.26,KH,1683432457
248,college,64.8569,-147.8028,10.18,43,20,6.17,US,1683432457
249,brandon,27.9378,-82.2859,23.92,79,75,3.09,US,1683432458
250,mahina,-17.5065,-149.489,28.87,70,20,1.03,PF,1683432458
251,assab,13.0092,42.7394,29.74,69,97,2.59,ER,1683432458
252,xai-xai,-25.0519,33.6442,18.57,92,0,3.33,MZ,1683432459
253,bunia,1.5667,30.25,17.29,93,97,1.03,CD,1683432459
254,ostersund,63.1792,14.6357,3.12,43,99,2.06,SE,1683432402
255,nema,57.5067,50.5011,0.7,70,38,5.45,RU,1683432461
256,arawa,-6.2132,155.5367,30.45,70,98,1.91,PG,1683432461
257,mount gambier,-37.8333,140.7667,11.96,50,94,4.46,AU,1683432461
258,anadyr,64.75,177.4833,0.28,69,0,6.0,RU,1683432462
259,queenstown,-31.8976,26.8753,9.9,91,91,1.28,ZA,1683432462
260,amga,60.8953,131.9608,3.83,99,100,3.86,RU,1683432462
261,gijang,35.2442,129.2139,11.42,89,100,9.78,KR,1683432462
262,athens,37.9795,23.7162,17.59,66,20,3.09,GR,1683432312
263,nova vicosa,-17.8919,-39.3719,24.27,76,2,3.99,BR,1683432463
264,wenchang,30.904,118.4887,19.45,66,77,4.45,CN,1683432463
265,as sulayyil,20.4607,45.5779,29.83,15,66,3.67,SA,1683432464
266,wanning,18.8003,110.3967,32.03,67,8,7.04,CN,1683432464
267,fale old settlement,-9.3852,-171.2468,29.02,77,7,5.41,TK,1683432464
268,mombetsu,44.3525,143.3525,8.29,45,21,2.83,JP,1683432464
269,toliara,-23.35,43.6667,21.23,76,0,2.1,MG,1683432465
270,robore,-18.3333,-59.75,20.26,90,100,0.63,BO,1683432465
271,desna,50.9273,30.7605,4.92,58,100,4.19,UA,1683432466
272,fredericksburg,38.3032,-77.4605,16.97,79,0,0.0,US,1683431971
273,huai yot,7.7893,99.6348,32.08,61,100,2.91,TH,1683432466
274,kristinestad,62.2743,21.376,1.17,81,21,5.66,FI,1683432466
275,daru,-9.0763,143.2092,29.02,77,97,5.53,PG,1683432467
276,smithers,54.7804,-127.1743,10.18,76,100,4.63,CA,1683432467
277,villa de soto,-30.8552,-64.9995,9.67,80,0,2.13,AR,1683432467
278,progreso,21.2833,-89.6667,30.06,76,74,6.6,MX,1683432468
279,ilha de mocambique,-15.0342,40.7358,23.93,76,0,4.8,MZ,1683432468
280,san martin de los andes,-40.1604,-71.3486,9.8,78,84,1.79,AR,1683432468
281,chibougamau,49.9168,-74.3659,6.72,71,7,2.8,CA,1683432468
282,pacific grove,36.6177,-121.9166,13.34,87,75,2.06,US,1683432469
283,lefkada,38.8275,20.7019,16.95,82,75,2.57,GR,1683432469
284,dickinson,29.4608,-95.0513,26.2,88,100,8.23,US,1683432469
285,avon park,27.5959,-81.5062,21.96,86,32,4.33,US,1683432231
286,prado,-17.3411,-39.2208,22.31,86,2,2.99,BR,1683432470
287,suwayr,30.1171,40.3893,20.17,35,2,4.23,SA,1683432470
288,corinto,37.9407,22.9573,17.72,70,13,1.52,GR,1683432471
289,robbah,33.2797,6.9098,28.82,15,100,6.0,DZ,1683432471
290,lumphat,13.4878,106.9816,38.69,36,43,2.44,KH,1683432471
291,lubumbashi,-11.6609,27.4794,9.94,82,1,1.38,CD,1683432296
292,barcelos,41.5388,-8.6151,16.03,96,58,1.48,PT,1683432370
293,tughyl,47.7252,84.2063,9.55,53,100,2.74,KZ,1683432472
294,balsas,-7.5325,-46.0356,24.93,78,94,1.15,BR,1683432472
295,bayston hill,52.6764,-2.7722,12.79,94,100,4.12,GB,1683432473
296,tralee,52.2704,-9.7026,8.9,96,88,2.2,IE,1683432473
297,howrah,22.5892,88.3103,34.0,55,0,1.54,IN,1683432473
298,bengkulu,-3.8004,102.2655,25.35,91,100,7.69,ID,1683432473
299,vallenar,-28.5708,-70.7581,13.41,62,23,1.07,CL,1683432474
300,el granada,37.5027,-122.4694,13.9,85,100,5.14,US,1683432474
301,coracora,-15.0333,-73.7833,10.1,78,83,2.48,PE,1683432474
302,bireun,5.203,96.7009,29.0,67,93,0.36,ID,1683432475
303,le teil,44.5468,4.6817,14.95,78,100,1.13,FR,1683432475
304,hammerfest,70.6634,23.6821,3.25,70,100,4.12,NO,1683432475
305,newman,37.3138,-121.0208,15.16,84,59,0.45,US,1683432408
306,rock springs,41.5875,-109.2029,5.03,87,75,2.06,US,1683432352
307,north ward,-19.2454,146.8075,27.95,65,21,7.72,AU,1683432476
308,petrolina,-9.3986,-40.5008,26.03,73,0,5.66,BR,1683432251
309,ak-dovurak,51.1833,90.6,12.26,28,100,0.61,RU,1683432476
310,vrontados,38.4089,26.1328,14.92,77,20,5.14,GR,1683432477
311,hartsville,34.374,-80.0734,18.9,77,100,2.57,US,1683432402
312,pangoa,-12.1167,-73.0,19.73,99,54,0.71,PE,1683432477
313,puerto baquerizo moreno,-0.9,-89.6,26.49,84,89,4.23,EC,1683432477
314,fada,9.5667,8.3,20.84,84,24,0.99,NG,1683432478
315,romblon,12.5751,122.2708,28.89,72,44,1.89,PH,1683432478
316,st. john's,47.5649,-52.7093,2.6,97,100,0.89,CA,1683432478
317,gunnison,38.7,-107.0673,4.47,60,100,1.34,US,1683432479
318,paka,4.6374,103.4368,31.29,65,100,1.76,MY,1683432479
319,inhambane,-23.865,35.3833,21.21,83,0,2.0,MZ,1683432479
320,santa marta,11.2408,-74.199,30.5,63,100,6.71,CO,1683432479
321,myeik,12.4333,98.6,32.3,61,99,4.63,MM,1683432480
322,vadso,70.0744,29.7487,5.09,56,87,3.6,NO,1683432480
323,sebis,46.3667,22.1167,12.73,91,99,1.94,RO,1683432480
324,portland,45.5234,-122.6762,13.23,83,90,2.68,US,1683432298
325,fort-shevchenko,44.5086,50.263,16.59,66,77,3.06,KZ,1683432481
326,new martinsville,39.6445,-80.8576,17.11,62,100,1.73,US,1683432482
327,nola,40.922,14.5329,16.46,91,9,0.84,IT,1683432482
328,gangtok,27.3333,88.6167,18.71,61,68,1.49,IN,1683432482
329,isangel,-19.55,169.2667,27.11,77,31,3.81,VU,1683432468
330,badger,64.8,-147.5333,10.14,43,20,6.17,US,1683432483
331,kavaratti,10.5669,72.642,28.63,66,100,3.71,IN,1683432483
332,taltal,-25.4,-70.4833,15.74,74,0,1.06,CL,1683432484
333,xiaoweizhai,26.1903,107.5125,14.38,95,100,2.6,CN,1683432484
334,woolgoolga,-30.1106,153.2007,21.93,38,48,3.62,AU,1683432484
335,selfoss,63.9331,-20.9971,9.47,83,100,4.6,IS,1683432485
336,undurkhaan,47.3194,110.6556,15.93,18,14,3.61,MN,1683432485
337,kananga,-5.8958,22.4178,20.48,91,69,1.35,CD,1683432485
338,kenora,49.8167,-94.4337,10.43,76,99,5.36,CA,1683432486
339,cabo san lucas,22.8909,-109.9124,24.73,61,100,2.84,MX,1683432195
340,tera,14.0078,0.7531,32.57,30,81,2.86,NE,1683432486
341,onguday,50.75,86.15,12.65,45,79,1.04,RU,1683432486
342,plettenberg bay,-34.0527,23.3716,16.14,79,57,2.39,ZA,1683432487
343,pinarbasi,38.7229,36.3931,8.32,77,58,1.32,TR,1683432487
344,kirensk,57.7853,108.1119,3.35,77,99,4.18,RU,1683432487
345,aginskoye,51.1,114.53,18.33,28,44,10.63,RU,1683432487
346,colac,-38.3333,143.5833,9.54,60,50,5.3,AU,1683432488
347,mercedes,-34.6515,-59.4307,15.91,95,100,4.8,AR,1683432488
348,oltinko'l,40.8011,72.1634,18.15,42,95,1.58,UZ,1683432488
349,kralendijk,12.15,-68.2667,26.99,78,75,8.23,BQ,1683432489
350,besisahar,28.2313,84.3761,28.44,37,18,2.53,NP,1683432489
351,nishinoomote,30.7333,131.0,21.33,95,100,7.47,JP,1683432489
352,masterton,-40.9597,175.6575,19.38,81,100,1.09,NZ,1683432490
353,lompoc,34.6391,-120.4579,13.34,89,20,0.45,US,1683432490
354,glace bay,46.1969,-59.957,0.61,87,0,3.6,CA,1683432194
355,baoding,38.8511,115.4903,25.5,16,0,7.06,CN,1683432490
356,wilhelmsburg,48.1057,15.6054,10.61,99,99,0.4,AT,1683432491
357,kone,-21.0595,164.8658,26.85,64,34,3.07,NC,1683432491
358,yeppoon,-23.1333,150.7333,27.88,57,56,3.57,AU,1683432491
359,fort mcmurray,56.7268,-111.381,12.73,40,75,3.6,CA,1683432479
360,khorinsk,52.1657,109.7726,15.42,34,45,8.27,RU,1683432492
361,bardai,11.65,7.2333,23.69,66,91,2.31,NG,1683432492
362,ataq,14.5377,46.8319,25.35,47,51,2.11,YE,1683432492
363,luanda,-8.8368,13.2343,24.0,88,20,0.51,AO,1683432493
364,phatthalung,7.5,100.0833,33.05,55,100,0.83,TH,1683432493
365,adler,43.43,39.92,13.09,87,100,2.0,RU,1683432493
366,berezovyy,51.6667,135.7,15.79,28,89,1.21,RU,1683432493
367,port-gentil,-0.7193,8.7815,27.38,81,100,3.37,GA,1683432494
368,ujae,8.9322,165.7642,28.17,79,75,7.74,MH,1683432494
369,avarua,-21.2078,-159.775,27.03,89,75,1.54,CK,1683432495
370,kidal,18.4411,1.4078,29.94,13,29,2.67,ML,1683432495
371,paracuru,-3.41,-39.0306,28.39,89,20,3.58,BR,1683432433
372,midvagur,62.0511,-7.1939,8.46,100,100,6.17,FO,1683432495
373,brookings,44.3114,-96.7984,11.73,94,100,4.12,US,1683432429
374,san patricio,28.017,-97.5169,26.58,86,98,7.15,US,1683432496
375,ivdel',60.6911,60.4206,9.28,59,100,3.78,RU,1683432496
376,labuan,5.2767,115.2417,31.2,70,20,1.54,MY,1683432131
377,christchurch,-43.5333,172.6333,16.08,82,100,1.79,NZ,1683432214
378,al majaridah,19.1236,41.9111,30.12,51,92,0.81,SA,1683432497
379,blackwater,-23.5833,148.8833,25.27,49,96,3.69,AU,1683432497
380,urk,52.6625,5.6014,13.86,95,100,4.34,NL,1683432498
381,vilyuysk,63.7553,121.6247,-0.94,86,100,5.88,RU,1683432498
382,guatire,10.4762,-66.5427,21.27,96,96,0.91,VE,1683432498
383,tianchang,37.9981,114.0156,22.43,27,2,3.87,CN,1683432499
384,murzuq,25.9155,13.9184,19.01,27,7,1.73,LY,1683432499
385,vondrozo,-22.8167,47.2833,16.93,98,81,0.77,MG,1683432499
386,cherdyn',60.403,56.4787,4.53,68,55,4.46,RU,1683432500
387,kimbe,-5.5502,150.1429,29.22,77,45,0.76,PG,1683432500
388,waingapu,-9.6567,120.2641,29.81,70,51,6.48,ID,1683432500
389,slavsk,55.0425,21.677,1.41,68,8,3.8,RU,1683432500
390,dalbandin,28.8947,64.4101,26.34,8,0,2.77,PK,1683432501
391,san antonio de pale,-1.4014,5.6325,28.18,78,78,4.39,GQ,1683432501
392,polyany,54.7122,39.8231,1.99,59,1,3.34,RU,1683432501
393,mogadishu,2.0371,45.3438,26.93,89,40,6.69,SO,1683432267
394,grahamstown,-33.3042,26.5328,10.53,93,29,2.88,ZA,1683432502
395,yunak,38.8142,31.7322,7.82,89,84,3.06,TR,1683432502
396,jieshi,22.8134,115.8257,27.11,82,100,3.8,CN,1683432502
397,hasaki,35.7333,140.8333,15.22,89,100,9.27,JP,1683432503
398,vila velha,-20.3297,-40.2925,23.3,89,75,1.54,BR,1683432503
399,aripuana,-9.1667,-60.6333,23.04,99,100,1.01,BR,1683432503
400,road town,18.4167,-64.6167,26.05,70,35,5.09,VG,1683432503
401,minas novas,-17.2186,-42.5903,17.92,83,41,1.04,BR,1683432504
402,rio gallegos,-51.6226,-69.2181,6.03,56,0,6.69,AR,1683432504
403,tual,-5.6667,132.75,28.29,79,73,2.86,ID,1683432437
404,soio,-6.1349,12.3689,26.11,90,98,2.84,AO,1683432505
405,terralba,39.7192,8.6392,14.69,64,88,3.74,IT,1683432506
406,mishan,45.55,131.8833,18.91,20,8,3.77,CN,1683432506
407,aragarcas,-15.8975,-52.2508,21.55,72,85,1.05,BR,1683432506
408,wurtulla,-26.7568,153.1256,25.59,60,99,2.24,AU,1683432507
409,mili,6.0815,171.735,28.24,79,53,4.76,MH,1683432507
410,trekhgornyy,54.815,58.4592,13.03,52,14,0.89,RU,1683432507
411,constitucion,-35.3333,-72.4167,11.17,90,15,1.66,CL,1683432508
412,dom pedrito,-30.9828,-54.6731,18.01,99,100,2.41,BR,1683432508
413,calvinia,-31.4707,19.776,8.1,61,1,1.54,ZA,1683432508
414,preobrazheniye,42.9019,133.9064,11.69,50,60,3.3,RU,1683432508
415,port sudan,19.6175,37.2164,27.29,47,12,2.44,SD,1683432509
416,xudat,41.631,48.681,13.51,87,85,1.88,AZ,1683432509
417,ves'yegonsk,58.664,37.2604,1.0,66,24,3.79,RU,1683432509
418,harper,4.375,-7.7169,26.07,86,90,2.12,LR,1683432510
419,mo i rana,66.3128,14.1428,2.96,69,75,1.34,NO,1683432510
420,santa barbara,34.7333,-120.0343,11.86,82,0,2.06,US,1683432394
421,ndjole,-0.1783,10.7649,24.43,98,100,0.65,GA,1683432510
422,igarka,67.4667,86.5833,-5.88,72,100,3.24,RU,1683432511
423,uturoa,-16.7333,-151.4333,28.2,71,100,6.9,PF,1683432511
424,kirakira,-10.4544,161.9205,28.58,81,68,2.26,SB,1683432511
425,boguchany,58.3814,97.4531,11.1,45,63,1.93,RU,1683432511
426,yeniseysk,58.4497,92.1703,11.69,51,86,2.33,RU,1683432512
427,irymple,-34.25,142.1667,14.49,42,3,0.45,AU,1683432512
428,argo,37.6333,22.7333,17.66,63,10,2.12,GR,1683432512
429,anahuac,27.2333,-100.15,27.91,55,57,8.05,MX,1683432513
430,bintulu,3.1667,113.0333,30.57,67,88,1.88,MY,1683432513
431,moama,-36.1167,144.7833,12.77,52,60,0.45,AU,1683432513
432,ciudad lazaro cardenas,17.9583,-102.2,26.49,79,0,1.89,MX,1683432237
433,boa vista,2.8197,-60.6733,25.99,83,75,2.06,BR,1683432514
434,patterson,37.4716,-121.1297,14.39,84,58,0.77,US,1683432321
435,las tablas,7.7667,-80.2833,25.65,99,81,6.63,PA,1683432514
436,selkirk,50.1436,-96.8845,13.95,76,100,5.91,CA,1683432514
437,panghyon-dong,39.8872,125.2414,19.84,50,99,1.42,KP,1683432515
438,ambodifotatra,-16.9833,49.85,25.0,78,6,4.04,MG,1683432515
439,enewetak,11.3474,162.3373,27.64,80,98,8.49,MH,1683432515
440,oyem,1.5995,11.5793,20.15,99,99,0.24,GA,1683432515
441,la paz,-16.5,-68.15,5.99,91,75,4.12,BO,1683432247
442,atar,20.5169,-13.0499,25.64,17,0,4.93,MR,1683432516
443,bougouni,11.417,-7.479,28.56,44,64,2.02,ML,1683432516
444,wangqing,43.3218,129.7634,19.54,21,41,2.03,CN,1683432516
445,northam,51.0333,-4.2167,11.48,97,66,1.83,GB,1683432517
446,raseiniai,55.3736,23.1217,0.79,63,11,3.3,LT,1683432517
447,washington,47.5001,-120.5015,11.07,64,99,2.4,US,1683431777
448,crystal city,28.6775,-99.8281,29.06,65,0,5.11,US,1683432518
449,taro,-8.3862,115.28,27.0,63,67,1.79,ID,1683432518
450,tolanaro,-25.0319,46.9987,20.45,91,100,3.72,MG,1683432518
451,nchelenge,-9.3451,28.734,16.24,73,4,3.31,ZM,1683432519
452,greenville,35.6127,-77.3663,17.09,84,0,2.06,US,1683432402
453,ghat,24.9647,10.1728,22.24,17,72,1.69,LY,1683432519
454,barranca,-10.75,-77.7667,21.83,84,80,4.45,PE,1683432320
455,montelibano,7.9829,-75.4229,25.35,92,100,3.49,CO,1683432520
456,chirkey,42.9613,46.9787,14.91,79,98,2.08,RU,1683432520
457,pachino,36.7186,15.0907,16.09,64,18,0.85,IT,1683432520
458,khilok,51.3674,110.4676,15.93,36,47,8.04,RU,1683432520
459,mejit,10.2753,170.8646,27.5,81,100,7.65,MH,1683432521
460,susuman,62.7833,148.1667,2.12,54,19,1.57,RU,1683432521
461,callao,-12.0667,-77.15,22.62,83,0,4.63,PE,1683432521
462,duobao,30.67,112.6895,19.86,49,94,5.17,CN,1683432521
463,aykhal,66.0,111.5,-9.28,83,100,9.2,RU,1683432522
464,tchibanga,-2.85,11.0333,22.32,98,100,0.48,GA,1683432522
465,barra de santo antonio,-9.4047,-35.5072,23.6,81,36,1.0,BR,1683432439
466,buka,40.8108,69.1986,18.58,46,48,3.09,UZ,1683432523
467,dawei,14.0833,98.2,33.73,56,79,4.12,MM,1683432523
468,santo antonio do amparo,-20.9464,-44.9189,14.28,95,57,1.69,BR,1683432523
469,ponta delgada,37.7333,-25.6667,18.4,94,75,5.14,PT,1683432523
470,jaffna,9.6685,80.0074,27.83,77,100,4.13,LK,1683432524
471,bezhetsk,57.7851,36.6965,0.53,66,19,4.24,RU,1683432524
472,khorixas,-20.3667,14.9667,16.71,54,6,0.93,NA,1683432524
473,dahlen,51.3667,13.0,9.76,89,100,4.07,DE,1683432524
474,deltebre,40.7499,0.7868,17.97,79,100,3.18,ES,1683432525
475,spring creek,40.7266,-115.5859,3.27,80,43,1.91,US,1683432525
476,ruiz,21.95,-105.15,23.21,64,37,1.03,MX,1683432525
477,galesong,-5.3166,119.3661,31.01,68,100,1.13,ID,1683432525
478,swakopmund,-22.6833,14.5333,13.32,91,0,0.89,NA,1683432526
479,porangatu,-13.4408,-49.1486,21.41,60,25,1.0,BR,1683432526
480,maughold,54.2988,-4.3184,7.57,90,14,0.94,IM,1683432526
481,taft,31.7471,54.2088,18.97,14,0,1.03,IR,1683432527
482,santa elena,-2.2333,-80.85,26.02,83,100,1.95,EC,1683432527
483,mangai,-4.05,19.5333,20.5,97,100,0.61,CD,1683432527
484,tionk essil,12.7856,-16.5217,22.58,77,85,2.04,SN,1683432527
485,senanga,-16.1167,23.2667,14.0,56,0,1.95,ZM,1683432528
486,ebaye,8.7748,167.7392,28.01,83,0,6.17,MH,1683432528
487,zeya,53.75,127.2667,17.5,23,11,3.15,RU,1683432529
488,shingu,33.7333,135.9833,20.42,97,100,4.89,JP,1683432530
489,le port,-20.9373,55.2919,24.98,88,6,2.1,RE,1683432530
490,kratie,12.4881,106.0188,39.04,34,79,3.68,KH,1683432531
491,bodo,67.28,14.405,4.41,56,0,6.69,NO,1683432531
492,urangan,-25.3,152.9,22.71,58,85,3.2,AU,1683432531
493,giddings,30.1827,-96.9364,25.92,78,75,5.66,US,1683432362
494,stalbe,57.3719,25.0343,1.22,68,31,1.71,LV,1683432532
495,ta`u,-14.2336,-169.5144,27.91,73,6,3.99,AS,1683432532
496,jiangyou,31.7667,104.7167,19.5,70,100,0.7,CN,1683432532
497,hobe sound,27.0595,-80.1364,24.41,76,40,6.17,US,1683432533
498,yacuiba,-22.038,-63.6797,12.75,96,37,1.8,BO,1683432533
499,nam som,17.7704,102.1895,40.61,26,9,4.18,TH,1683432533
500,ebon,4.582,168.6964,29.01,75,94,5.08,MH,1683432534
501,concepcion,-36.827,-73.0498,12.89,94,100,0.51,CL,1683432534
502,funafuti,-8.5243,179.1942,32.0,79,40,6.0,TV,1683432534
503,cobija,-11.0267,-68.7692,22.11,99,79,0.57,BO,1683432534
504,laguna,38.421,-121.4238,14.11,72,0,4.12,US,1683432535
505,bodaybo,57.8506,114.1933,4.53,63,99,7.25,RU,1683432535
506,papao,-17.75,-149.55,28.82,80,74,6.94,PF,1683432535
507,iwon-up,40.3231,128.6553,14.16,45,100,1.77,KP,1683432536
508,matane,48.8286,-67.522,8.25,73,92,3.81,CA,1683431992
509,altay,47.8667,88.1167,7.81,62,100,1.5,CN,1683432536
510,enshi,30.3,109.4833,14.68,95,100,1.48,CN,1683432536
511,sarmiento,-45.5882,-69.07,10.31,79,100,1.21,AR,1683432537
512,ust'-ilimsk,58.0006,102.6619,8.14,58,34,4.44,RU,1683432537
513,titisee-neustadt,47.9,8.1667,10.74,91,74,0.81,DE,1683432537
514,alaghsas,17.0187,8.0168,29.3,11,49,8.29,NE,1683432538
515,fort st. john,56.2499,-120.8529,15.94,31,100,8.75,CA,1683432538
516,acapulco de juarez,16.8634,-99.8901,28.9,74,20,2.06,MX,1683432539
517,dakhla,23.6848,-15.958,18.54,85,0,11.47,EH,1683432539
518,xianshuigu,38.985,117.3828,23.0,25,0,4.0,CN,1683432539
519,zhaotong,27.3167,103.7167,16.58,68,98,2.91,CN,1683432539
520,colonia menno,-22.3667,-59.8167,15.69,92,98,0.55,PY,1683432540
521,elko,41.0002,-115.5012,3.46,83,48,0.45,US,1683432540
522,badr hunayn,23.7829,38.7905,29.33,24,0,0.4,SA,1683432540
523,juneau,58.3019,-134.4197,12.0,82,75,3.6,US,1683432303
524,bonthe,7.5264,-12.505,26.47,87,13,1.99,SL,1683432541
525,pangody,65.85,74.4859,-1.35,96,100,7.55,RU,1683432541
526,muhammadabad,25.6333,83.75,36.78,19,0,3.88,IN,1683432541
527,praia da vitoria,38.7333,-27.0667,17.64,98,99,10.79,PT,1683432542
528,waddan,29.1614,16.139,16.56,54,0,3.95,LY,1683432542
529,dongola,19.1667,30.4833,24.88,24,33,4.76,SD,1683432542
530,kialla,-36.4161,145.3954,12.52,46,84,9.43,AU,1683432542
531,bahau,2.8079,102.4049,28.34,74,100,2.56,MY,1683432543
532,lorengau,-2.0226,147.2712,29.58,71,25,2.09,PG,1683432543
533,ulsteinvik,62.3432,5.8487,9.06,61,53,2.24,NO,1683432543
534,nizhniy kuranakh,58.8353,125.4869,5.2,71,100,5.24,RU,1683432544
535,cockburn town,21.4612,-71.1419,26.18,80,12,7.82,TC,1683432544
536,paraiso,9.8383,-83.8656,20.48,94,100,1.95,CR,1683432544
537,salinas,36.6777,-121.6555,13.93,85,75,2.06,US,1683432481
538,inarajan village,13.2736,144.7484,30.22,84,100,4.35,GU,1683432545
539,samdari,25.8167,72.5833,34.12,29,0,5.55,IN,1683432545
540,codrington,-38.2667,141.9667,11.93,51,90,7.25,AU,1683432545
541,ixtapa,20.7,-105.2,26.79,83,0,0.0,MX,1683432546
542,ad dilam,23.9915,47.1627,29.38,17,1,3.98,SA,1683432546
543,san luis,-33.295,-66.3356,13.74,59,91,4.46,AR,1683432546
544,twon-brass,4.3151,6.2418,25.27,79,92,0.28,NG,1683432546
545,wajir,1.7471,40.0573,24.19,81,6,4.06,KE,1683432547
546,yichang,30.7144,111.2847,19.1,52,99,0.82,CN,1683432547
547,puerto aysen,-45.4,-72.7,6.51,97,10,1.18,CL,1683432547
548,santo antonio de jesus,-12.9689,-39.2614,20.3,98,20,1.85,BR,1683432536
549,stony hill,18.0754,-76.7911,23.4,92,78,0.41,JM,1683432548
550,miandrivazo,-19.5167,45.4667,22.6,77,0,0.66,MG,1683432548
551,ugoofaaru,5.6667,73.0,29.27,72,92,7.29,MV,1683432549
552,ribeira brava,32.65,-17.0667,19.35,68,64,1.8,PT,1683432549
553,la'ie,21.6477,-157.9253,26.98,70,96,4.02,US,1683432549
554,mersing,2.4312,103.8405,29.0,72,98,4.09,MY,1683432550
555,sinabang,2.4803,96.3801,26.67,85,100,2.9,ID,1683432550
556,castelli,-25.9468,-60.6195,14.76,98,96,1.58,AR,1683432550
557,itoman,26.1247,127.6694,27.21,89,75,7.72,JP,1683432550
558,kangding,30.0513,101.9603,16.05,60,30,2.23,CN,1683432551
559,reichenbach/vogtland,50.6167,12.3,9.86,89,63,0.89,DE,1683432551
560,belyy yar,53.6039,91.3903,19.94,28,0,1.0,RU,1683432552
561,zheleznodorozhnyy,55.7503,38.0042,1.75,55,2,2.94,RU,1683432358
562,katabu,-4.9333,122.5167,30.3,69,86,1.23,ID,1683432553
563,camana,-16.6228,-72.7111,20.16,84,99,4.28,PE,1683432553
564,moyynkum,44.2914,72.9469,19.69,15,0,8.06,KZ,1683432554
565,walvis bay,-22.9575,14.5053,13.38,78,0,3.12,NA,1683432554
566,manakara,-22.1333,48.0167,21.08,89,99,1.81,MG,1683432554
567,iwata,34.7,137.85,22.03,97,100,3.77,JP,1683432555
568,pak phanang,8.3511,100.202,35.58,60,99,1.35,TH,1683432555
569,mhamid,29.82,-5.72,24.14,19,1,2.47,MA,1683432555
570,kushikino,31.7167,130.2667,22.27,98,100,7.64,JP,1683432555
571,akureyri,65.6835,-18.0878,9.53,79,92,2.35,IS,1683432556
572,wladyslawowo,54.7909,18.4009,6.55,82,7,4.0,PL,1683432556
573,taroudant,30.4703,-8.877,15.56,71,0,0.26,MA,1683432556
574,cudillero,43.5622,-6.1459,14.95,97,100,1.54,ES,1683432557
575,tauranga,-37.6861,176.1667,18.97,91,100,2.24,NZ,1683432534
576,guarapari,-20.6667,-40.4975,23.27,86,68,1.86,BR,1683432557
577,at-bashi,41.1702,75.8106,7.51,54,63,0.97,KG,1683432375
578,kharp,66.8014,65.8081,-4.69,93,100,6.31,RU,1683432558
