City_ID,City,Lat,Lng,Max Temp,Humidity,Cloudiness,Wind Speed,Country,Date
0,iqaluit,63.7506,-68.5145,-6.15,79,20,3.6,CA,1683514219
1,udachny,66.4167,112.4,-3.08,35,24,3.29,RU,1683514220
2,kingston,17.997,-76.7936,26.53,89,20,1.54,JM,1683513965
3,papatowai,-46.5619,169.4708,12.57,78,100,1.65,NZ,1683514220
4,altar,30.7,-111.8167,23.94,20,0,4.16,MX,1683514221
5,bethel,41.3712,-73.414,17.05,75,100,4.63,US,1683513986
6,utrik,11.2278,169.8474,27.0,83,75,8.48,MH,1683514221
7,immokalee,26.4187,-81.4173,24.97,81,0,4.62,US,1683514221
8,kerikeri,-35.2268,173.9474,19.95,92,100,2.24,NZ,1683514222
9,port-aux-francais,-49.35,70.2167,4.14,64,99,8.39,TF,1683514222
10,west island,-12.1568,96.8225,29.99,84,75,2.06,CC,1683514222
11,afaahiti,-17.75,-149.2833,28.93,79,100,4.09,PF,1683514223
12,georgetown,5.4112,100.3354,31.96,79,20,2.06,MY,1683514164
13,blackmans bay,-43.0167,147.3167,12.51,74,97,3.91,AU,1683514223
14,sebastopol,44.6,33.5333,11.11,67,95,0.89,UA,1683514224
15,edinburgh of the seven seas,-37.0676,-12.3116,14.25,64,63,1.95,SH,1683514224
16,adamstown,-25.066,-130.1015,21.67,59,100,10.11,PN,1683514224
17,port elizabeth,-33.918,25.5701,17.16,88,75,2.06,ZA,1683514225
18,grytviken,-54.2811,-36.5092,1.57,98,95,4.03,GS,1683514225
19,kodiak,57.79,-152.4072,5.73,75,100,2.57,US,1683514225
20,tiksi,71.6872,128.8694,-10.79,78,71,6.19,RU,1683514226
21,usogorsk,63.4106,48.6872,-2.08,67,16,3.62,RU,1683514226
22,sinop,41.7711,34.8709,9.78,98,100,1.7,TR,1683514226
23,lata,40.1629,-8.3327,12.73,86,74,1.05,PT,1683514226
24,yellowknife,62.456,-114.3525,18.29,29,0,4.63,CA,1683514021
25,hermanus,-34.4187,19.2345,12.11,79,5,1.91,ZA,1683514227
26,bredasdorp,-34.5322,20.0403,12.0,92,22,1.61,ZA,1683514228
27,praia da vitoria,38.7333,-27.0667,19.14,94,75,7.25,PT,1683514228
28,brokopondo,4.75,-55.1667,23.4,92,100,4.21,SR,1683514228
29,waitangi,-43.9535,-176.5597,16.01,87,100,3.13,NZ,1683514228
30,kavaratti,10.5669,72.642,28.71,71,60,4.58,IN,1683514229
31,omurtag,43.1,26.4167,6.81,80,92,1.99,BG,1683514230
32,tinajo,29.0788,-13.7081,18.49,72,0,9.26,ES,1683514230
33,puerto ayora,-0.7393,-90.3518,26.42,96,62,1.79,EC,1683514231
34,polyarnyy,69.1989,33.4478,1.36,88,100,7.54,RU,1683514231
35,ancud,-41.8697,-73.8203,6.95,90,8,1.67,CL,1683514119
36,sitka,57.0531,-135.33,8.94,61,75,4.12,US,1683514232
37,hamilton,39.1834,-84.5333,19.03,88,0,2.06,US,1683513949
38,puerto aysen,-45.4,-72.7,3.45,96,54,1.52,CL,1683514093
39,pangody,65.85,74.4859,1.22,99,100,8.49,RU,1683514233
40,sisimiut,66.9395,-53.6735,-1.06,86,80,5.04,GL,1683514233
41,bilibino,68.0546,166.4372,-1.95,75,19,1.19,RU,1683514234
42,ribeira grande,38.5167,-28.7,17.65,98,100,4.02,PT,1683514234
43,sinabang,2.4803,96.3801,26.73,84,100,6.23,ID,1683514234
44,margaret river,-33.95,115.0667,20.19,43,100,7.66,AU,1683513992
45,novaya igirma,57.1334,103.9112,14.39,49,55,3.56,RU,1683514235
46,puerto natales,-51.7236,-72.4875,4.93,87,93,1.47,CL,1683514091
47,richards bay,-28.783,32.0377,19.41,91,97,2.13,ZA,1683514235
48,albany,42.6001,-73.9662,14.4,83,100,1.56,US,1683514236
49,kone,-21.0595,164.8658,25.97,66,100,2.82,NC,1683514236
50,naze,28.3667,129.4833,20.51,71,97,8.16,JP,1683514236
51,peniche,39.3558,-9.3811,16.17,90,98,5.85,PT,1683514236
52,acarigua,9.5545,-69.1956,27.73,58,89,1.24,VE,1683513748
53,homer,59.6425,-151.5483,5.98,84,100,5.36,US,1683514237
54,balabac,7.9868,117.0645,29.75,65,100,2.57,PH,1683514237
55,ushuaia,-54.8,-68.3,7.81,71,20,1.54,AR,1683514238
56,parsabad,39.6482,47.9174,14.37,83,23,3.27,IR,1683514033
57,longyearbyen,78.2186,15.6401,-2.09,86,75,2.57,SJ,1683514238
58,'alaqahdari dishu,30.4374,63.313,24.09,15,0,4.76,AF,1683514238
59,port mathurin,-19.6833,63.4167,25.84,71,30,11.3,MU,1683514239
60,hawaiian paradise park,19.5933,-154.9731,25.73,77,40,2.06,US,1683514239
61,puerto baquerizo moreno,-0.9,-89.6,26.28,87,92,4.61,EC,1683514239
62,howard springs,-12.497,131.047,31.01,44,40,5.85,AU,1683514240
63,jamestown,42.097,-79.2353,16.12,87,100,3.09,US,1683514101
64,carnarvon,-24.8667,113.6333,28.07,33,0,5.97,AU,1683514240
65,solin,43.55,16.5,17.69,72,0,2.57,HR,1683514240
66,bandarbeyla,9.4942,50.8122,27.67,79,100,2.79,SO,1683514241
67,lethem,3.3803,-59.7968,26.43,77,100,5.73,GY,1683514241
68,wailua homesteads,22.0669,-159.378,27.24,68,20,7.72,US,1683514242
69,badger,64.8,-147.5333,11.95,35,75,3.09,US,1683514242
70,talnakh,69.4865,88.3972,-7.66,75,87,2.76,RU,1683514243
71,vilyuchinsk,52.9306,158.4028,9.15,74,44,2.47,RU,1683514243
72,karratha,-20.7377,116.8463,29.43,30,19,10.8,AU,1683514243
73,nova sintra,14.8667,-24.7167,19.9,79,0,6.07,CV,1683514244
74,santa ana,33.7456,-117.8678,19.58,70,20,4.12,US,1683514128
75,el granada,37.5027,-122.4694,15.24,77,0,7.2,US,1683514244
76,gannan,47.9147,123.5031,15.15,17,2,10.31,CN,1683514245
77,invercargill,-46.4,168.35,14.89,80,100,1.23,NZ,1683514245
78,zavodskoy,43.4597,132.2922,19.77,34,0,2.0,RU,1683514245
79,toliara,-23.35,43.6667,21.89,69,0,2.05,MG,1683514245
80,tolanaro,-25.0319,46.9987,22.04,88,0,3.09,MG,1683514246
81,as saffaniyah,27.9708,48.73,26.9,51,59,4.17,SA,1683514246
82,mejit,10.2753,170.8646,27.47,82,60,7.85,MH,1683514246
83,labytnangi,66.6572,66.4183,-5.38,94,100,6.62,RU,1683514247
84,coyhaique,-45.5752,-72.0662,2.34,97,23,2.1,CL,1683514115
85,port alfred,-33.5906,26.891,18.67,71,100,4.76,ZA,1683514247
86,olonkinbyen,70.9221,-8.7187,1.41,100,100,3.9,SJ,1683514247
87,gargalianoi,37.0667,21.6333,14.64,66,2,3.27,GR,1683514248
88,el bauga,18.262,33.9081,25.87,18,5,5.83,SD,1683514248
89,malango,-2.9627,119.9001,27.46,65,93,1.09,ID,1683514248
90,puerto deseado,-47.7503,-65.8938,8.25,73,0,5.62,AR,1683514248
91,kralendijk,12.15,-68.2667,26.99,78,75,8.23,BQ,1683513517
92,kailua-kona,19.6406,-155.9956,28.98,70,75,5.66,US,1683514118
93,sur,22.5667,59.5289,29.69,50,0,3.21,OM,1683514249
94,buala,-8.145,159.5921,29.52,73,59,1.46,SB,1683514249
95,greenville,35.6127,-77.3663,22.09,73,40,4.12,US,1683514250
96,axim,4.8699,-2.2405,26.38,81,99,1.3,GH,1683514250
97,keelung,25.1283,121.7419,20.94,92,100,1.6,TW,1683514250
98,susuman,62.7833,148.1667,4.67,60,32,2.9,RU,1683514251
99,qaqortoq,60.7167,-46.0333,1.09,83,100,1.04,GL,1683514251
100,hampton bays,40.869,-72.5176,16.32,87,20,4.63,US,1683514251
101,san antonio de pale,-1.4014,5.6325,28.08,79,100,3.12,GQ,1683514252
102,guerrero negro,27.9769,-114.0611,15.47,80,0,8.28,MX,1683514252
103,iskateley,67.6803,53.1512,-4.93,92,50,3.02,RU,1683514252
104,kozel'sk,54.0375,35.7716,0.13,62,2,1.79,RU,1683514253
105,sandnessjoen,66.0217,12.6316,4.8,87,24,0.45,NO,1683514254
106,vorkuta,67.5,64.0,-9.36,88,100,9.33,RU,1683514254
107,lorengau,-2.0226,147.2712,29.15,76,41,3.04,PG,1683514254
108,rio verde,21.9333,-99.9833,21.9,70,100,2.83,MX,1683514255
109,ilulissat,69.2167,-51.1,0.01,86,100,0.0,GL,1683514016
110,hailin,44.5833,129.4167,20.59,20,20,6.87,CN,1683514256
111,batesville,35.7698,-91.641,26.23,73,40,6.69,US,1683514256
112,pachora,20.6667,75.35,30.71,45,73,4.16,IN,1683514256
113,curanilahue,-37.4667,-73.35,8.04,83,0,1.35,CL,1683514257
114,kavieng,-2.5744,150.7967,28.88,79,62,3.92,PG,1683514257
115,college,64.8569,-147.8028,11.99,39,75,3.09,US,1683514257
116,tabas,33.5959,56.9244,26.23,12,0,0.77,IR,1683514258
117,robertsport,6.7533,-11.3686,27.86,80,25,2.19,LR,1683514258
118,rongelap,11.1635,166.8941,27.45,80,61,8.2,MH,1683514258
119,new norfolk,-42.7826,147.0587,13.17,70,100,0.45,AU,1683514258
120,zapolyarnyy,69.4154,30.8136,2.6,94,100,3.61,RU,1683514259
121,punta arenas,-53.15,-70.9167,8.06,71,0,6.17,CL,1683514253
122,atafu village,-8.5421,-172.5159,29.16,75,7,3.98,TK,1683514259
123,tura,25.5198,90.2201,31.58,34,0,2.8,IN,1683514260
124,petropavlovsk-kamchatsky,53.0452,158.6483,8.33,46,75,7.0,RU,1683514260
125,thompson,55.7435,-97.8558,16.09,39,20,2.06,CA,1683514260
126,xinyuan,37.3,99.0,1.66,94,100,1.49,CN,1683514261
127,ruwa,-17.8972,31.2371,10.07,56,0,1.31,ZW,1683514261
128,giddarbaha,30.2,74.6667,29.95,20,0,1.24,IN,1683514262
129,xilin hot,43.9667,116.0333,16.38,28,36,3.34,CN,1683514262
130,amarante do maranhao,-5.5667,-46.7422,22.55,90,77,0.86,BR,1683514262
131,omdurman,15.6445,32.4777,30.16,12,8,7.27,SD,1683514262
132,luganville,-15.5333,167.1667,28.65,70,29,3.31,VU,1683514263
133,siwa oasis,29.2041,25.5195,18.08,55,0,2.18,EG,1683514263
134,byaroza,52.5314,24.9786,0.87,79,5,3.12,BY,1683514263
135,boende,-0.2167,20.8667,22.18,98,100,0.75,CD,1683514263
136,timbuktu,16.7735,-3.0074,33.86,25,100,6.89,ML,1683514264
137,vorgashor,67.5833,63.95,-9.66,86,100,9.68,RU,1683514264
138,saudarkrokur,65.7461,-19.6394,7.82,87,84,1.14,IS,1683514264
139,nar'yan-mar,67.6713,53.087,-4.82,92,52,3.05,RU,1683514264
140,ayame,5.6083,-3.1563,23.68,91,99,0.42,CI,1683514265
141,itoman,26.1247,127.6694,23.01,78,75,8.75,JP,1683514265
142,gaigeturi,33.4644,126.3183,16.03,67,0,4.63,KR,1683514265
143,dolinsk,47.35,142.8,10.8,48,90,2.5,RU,1683514266
144,mount gambier,-37.8333,140.7667,13.05,75,96,4.4,AU,1683514266
145,tual,-5.6667,132.75,28.91,76,99,5.79,ID,1683514266
146,page,36.9147,-111.4558,23.88,18,0,5.81,US,1683514266
147,porto franco,-6.3383,-47.3992,23.19,89,89,0.4,BR,1683514267
148,todos santos,23.45,-110.2167,19.81,77,81,4.24,MX,1683514267
149,ma'rib,15.4591,45.3253,25.57,19,33,1.55,YE,1683514267
150,el calafate,-50.3408,-72.2768,5.57,73,98,1.99,AR,1683514268
151,port macquarie,-31.4333,152.9167,19.94,35,10,6.99,AU,1683514121
152,raiganj,25.6167,88.1167,32.27,28,0,3.07,IN,1683514268
153,matoury,4.8483,-52.3317,24.98,100,100,0.51,GF,1683514268
154,nemuro,43.3236,145.575,1.36,98,100,6.61,JP,1683514269
155,curuca,-0.7289,-47.8481,24.12,95,79,2.16,BR,1683514269
156,nova vicosa,-17.8919,-39.3719,23.91,86,9,2.98,BR,1683514269
157,suntar,62.1444,117.6319,-0.14,61,92,1.88,RU,1683514269
158,urangan,-25.3,152.9,20.58,26,0,5.05,AU,1683514270
159,laboe,54.4,10.2167,8.11,76,10,3.09,DE,1683514270
160,keflavik,64.0049,-22.5624,10.24,81,75,4.63,IS,1683514270
161,tamandare,-8.7597,-35.1047,24.93,79,13,2.29,BR,1683514270
162,souq larb'a al gharb,34.6866,-6.0027,14.3,92,7,1.94,MA,1683514271
163,saipan,15.1355,145.701,30.39,100,40,6.69,MP,1683514271
164,hammerfest,70.6634,23.6821,2.25,100,75,1.03,NO,1683514271
165,virginia beach,36.8529,-75.978,22.01,81,100,4.63,US,1683513468
166,loa janan,-0.583,117.095,27.12,91,100,0.66,ID,1683514272
167,barra de santo antonio,-9.4047,-35.5072,26.6,78,64,3.17,BR,1683514272
168,luderitz,-26.6481,15.1594,13.98,56,3,5.77,NA,1683514272
169,basoko,1.2391,23.616,21.62,97,100,1.91,CD,1683514273
170,san patricio,28.017,-97.5169,26.02,82,100,8.01,US,1683514273
171,birzebbuga,35.8258,14.5269,18.42,88,0,4.12,MT,1683514273
172,birobidzhan,48.8,132.95,19.88,21,100,3.05,RU,1683514273
173,hobyo,5.3505,48.5268,27.24,77,57,8.62,SO,1683514274
174,tazovsky,67.4667,78.7,-4.45,94,100,11.98,RU,1683514274
175,danilovgrad,42.5538,19.1461,13.87,86,60,1.31,ME,1683514274
176,pacific grove,36.6177,-121.9166,14.58,78,0,4.63,US,1683514275
177,alice springs,-23.7,133.8833,15.75,21,28,7.72,AU,1683514275
178,lucapa,-8.4192,20.7447,17.51,68,10,1.6,AO,1683514275
179,nogliki,51.8333,143.1667,6.69,63,96,4.31,RU,1683514276
180,aykhal,66.0,111.5,-6.2,74,57,5.04,RU,1683514276
181,cudillero,43.5622,-6.1459,13.28,93,0,3.09,ES,1683514276
182,colonia,50.9333,6.95,15.54,88,0,2.57,DE,1683514277
183,harstad,68.799,16.5293,5.66,100,100,7.15,NO,1683514277
184,taunggyi,20.7833,97.0333,31.22,33,40,1.27,MM,1683514278
185,egilsstadir,65.2653,-14.3948,7.95,81,75,2.06,IS,1683514278
186,nikfer,37.4054,29.1373,8.31,87,0,2.2,TR,1683514279
187,tanaina,61.6269,-149.4281,9.58,68,100,7.72,US,1683514279
188,anadyr,64.75,177.4833,0.28,80,0,7.6,RU,1683514279
189,mundybash,53.211,87.2983,20.13,38,0,1.09,RU,1683514279
190,antsiranana,-12.2787,49.2917,23.49,78,5,5.59,MG,1683514280
191,selibaby,15.159,-12.1829,32.23,15,86,3.44,MR,1683514280
192,taksimo,56.3444,114.8794,6.73,41,100,3.06,RU,1683514280
193,ontario,34.0633,-117.6509,19.02,59,20,5.81,US,1683513712
194,las trojes,14.0667,-85.9833,21.85,64,100,2.0,HN,1683514281
195,alofi,-19.0595,-169.9187,26.94,78,89,2.57,NU,1683514281
196,mossel bay,-34.1831,22.146,11.96,81,0,2.44,ZA,1683514281
197,arraial do cabo,-22.9661,-42.0278,23.7,87,0,6.4,BR,1683514282
198,ad dawadimi,24.5077,44.3924,24.64,18,81,2.43,SA,1683514282
199,ciudad lazaro cardenas,17.9583,-102.2,26.88,74,2,2.27,MX,1683514282
200,kokopo,-4.352,152.2633,29.13,76,99,2.46,PG,1683514282
201,benjamin hill,30.1667,-111.1,24.12,15,0,3.74,MX,1683514283
202,la'ie,21.6477,-157.9253,27.98,71,100,2.24,US,1683514283
203,moranbah,-22.0016,148.0466,22.3,23,25,6.4,AU,1683514283
204,champerico,14.3,-91.9167,29.94,72,3,1.98,GT,1683514284
205,port lincoln,-34.7333,135.8667,14.15,68,100,4.24,AU,1683514284
206,swift current,50.2834,-107.8014,13.45,54,100,5.14,CA,1683514254
207,enewetak,11.3474,162.3373,27.46,79,100,7.14,MH,1683514285
208,uturoa,-16.7333,-151.4333,27.82,76,99,3.71,PF,1683514285
209,ilam,26.9167,87.9167,25.88,36,0,1.97,NP,1683514285
210,whitehorse,60.7161,-135.0538,13.43,30,40,6.71,CA,1683514285
211,manadhoo,5.7667,73.3833,29.22,72,58,6.29,MV,1683514286
212,ramadi,33.4226,43.3058,23.03,34,0,3.43,IQ,1683514286
213,comodoro rivadavia,-45.8667,-67.5,3.92,87,0,2.57,AR,1683513893
214,altay,47.8667,88.1167,7.47,68,100,1.66,CN,1683514287
215,sakakah,29.9697,40.2064,20.76,28,0,4.03,SA,1683514287
216,swakopmund,-22.6833,14.5333,12.77,91,0,0.89,NA,1683514287
217,stanley,54.868,-1.6985,10.97,91,0,0.51,GB,1683513995
218,lebu,-37.6167,-73.65,9.32,82,1,5.06,CL,1683514093
219,st. john's,47.5649,-52.7093,4.66,73,75,9.77,CA,1683514269
220,avarua,-21.2078,-159.775,26.03,94,100,1.03,CK,1683514288
221,youkounkoun,12.5333,-13.1333,30.04,46,100,3.3,GN,1683514289
222,geraldton,-28.7667,114.6,24.23,33,75,11.83,AU,1683514289
223,at taj,24.2049,23.2857,18.14,35,0,3.77,LY,1683514289
224,imbituba,-28.24,-48.6703,21.32,91,96,5.44,BR,1683514289
225,macapa,0.0389,-51.0664,25.99,100,40,1.54,BR,1683514290
226,kuching,1.55,110.3333,30.12,83,40,3.09,MY,1683514290
227,kolondieba,11.0882,-6.8926,27.53,59,100,2.14,ML,1683514291
228,kish,26.5578,54.0194,23.15,94,4,0.0,IR,1683514291
229,kegen,43.0197,79.2203,8.01,34,8,0.43,KZ,1683514291
230,namtsy,62.7161,129.6658,-2.04,52,17,6.9,RU,1683514291
231,sao joao nepomuceno,-21.54,-43.0106,17.76,93,17,0.34,BR,1683514292
232,pingliang,35.5392,106.6861,8.26,95,100,2.89,CN,1683514292
233,port blair,11.6667,92.75,30.69,67,100,1.19,IN,1683514292
234,constantia,44.1833,28.65,9.38,71,74,1.12,RO,1683514293
235,haiku-pauwela,20.9219,-156.3051,27.01,64,40,12.86,US,1683514293
236,berezovo,63.9381,65.0419,-0.81,67,93,5.42,RU,1683514293
237,kemijarvi,66.7131,27.4306,-0.43,97,100,2.63,FI,1683514294
238,fonte boa,-2.4959,-66.2662,23.7,97,22,1.14,BR,1683514294
239,hithadhoo,-0.6,73.0833,28.55,73,71,6.24,MV,1683514295
240,muroto-misakicho,33.2833,134.15,17.81,60,82,5.35,JP,1683514295
241,san luis de la loma,17.2706,-100.8939,28.15,71,29,3.12,MX,1683514295
242,sann,26.0418,68.1378,23.95,19,0,3.39,PK,1683514295
243,zhangye,38.9342,100.4517,6.71,86,100,7.37,CN,1683514296
244,lihue,21.9789,-159.3672,27.58,67,20,7.72,US,1683514239
245,shalqar,47.8333,59.6,17.16,47,32,3.81,KZ,1683514296
246,walvis bay,-22.9575,14.5053,12.83,93,0,1.54,NA,1683514297
247,rubtsovsk,51.5,81.25,19.74,41,0,1.05,RU,1683514297
248,baruun-urt,46.6806,113.2792,14.4,24,18,2.83,MN,1683514297
249,massawa,15.6097,39.45,29.22,63,79,1.74,ER,1683514298
250,zeya,53.75,127.2667,6.52,67,100,7.08,RU,1683514298
251,marion,39.7684,-86.1555,19.65,86,75,2.06,US,1683514233
252,bu'aale,1.0833,42.5833,23.2,96,35,2.07,SO,1683514299
253,tralee,52.2704,-9.7026,12.99,99,100,2.34,IE,1683514299
254,vilyuysk,63.7553,121.6247,-4.32,65,97,3.16,RU,1683514299
255,guayaramerin,-10.8368,-65.3614,22.65,99,99,1.17,BO,1683514300
256,al qusayr,34.5091,36.5798,12.82,88,22,0.77,SY,1683514302
257,flin flon,54.7682,-101.865,10.91,57,50,1.55,CA,1683514302
258,kyzyl-mazhalyk,51.1333,90.6,13.28,40,81,2.05,RU,1683514303
259,dondo,-19.6094,34.7431,23.73,96,15,2.26,MZ,1683514303
260,ponta delgada,37.7333,-25.6667,18.4,94,75,6.17,PT,1683514303
261,weno,7.4515,151.8468,30.97,70,75,4.12,FM,1683514304
262,sittwe,20.15,92.9,31.35,50,6,1.08,MM,1683514304
263,tofol,5.3248,163.0078,26.88,89,100,1.54,FM,1683514304
264,nazarabad,35.9521,50.6075,22.45,23,34,3.45,IR,1683514304
265,olutanga,7.3106,122.8464,29.17,71,81,2.13,PH,1683514305
266,hilo,19.7297,-155.09,25.85,74,40,2.06,US,1683514305
267,opuwo,-18.0607,13.84,17.76,37,0,1.19,NA,1683514305
268,inari,68.906,27.0288,4.11,88,100,2.53,FI,1683514306
269,daru,-9.0763,143.2092,28.52,81,35,6.21,PG,1683514306
270,zaozersk,69.4005,32.4476,0.9,91,100,6.73,RU,1683514306
271,lycksele,64.5954,18.6735,0.93,75,77,0.0,SE,1683514307
272,byron bay,-28.65,153.6167,20.39,27,0,4.52,AU,1683514307
273,lompoc,34.6391,-120.4579,16.12,84,20,8.23,US,1683514025
274,wanparti,16.3667,78.0667,29.49,55,28,2.9,IN,1683514308
275,island harbour,50.724,-1.2758,11.37,95,100,0.89,GB,1683514308
276,chonchi,-42.6128,-73.8092,7.29,95,36,0.54,CL,1683514093
277,vadso,70.0744,29.7487,3.49,87,75,5.14,NO,1683514308
278,nema,57.5067,50.5011,1.41,61,7,3.66,RU,1683514309
279,sale,34.0389,-6.8166,17.02,100,11,0.0,MA,1683514141
280,singkil,-7.9855,111.4161,29.44,64,80,2.06,ID,1683514309
281,isafjordur,66.0755,-23.124,6.34,93,99,2.0,IS,1683514306
282,la passe,45.5549,-0.8967,14.43,91,38,1.98,FR,1683514310
283,newman,37.3138,-121.0208,21.19,62,52,3.38,US,1683514310
284,fort bragg,35.139,-79.006,22.91,66,0,5.14,US,1683514311
285,fale old settlement,-9.3852,-171.2468,29.09,75,40,4.32,TK,1683514311
286,holualoa,19.6228,-155.9522,26.91,72,75,5.66,US,1683514311
287,ahar,38.4774,47.0699,14.42,43,0,2.04,IR,1683514312
288,afif,23.9065,42.9172,25.94,14,80,1.63,SA,1683514312
289,nouadhibou,20.931,-17.0347,18.25,83,0,10.16,MR,1683514312
290,paka,4.6374,103.4368,29.96,70,20,2.06,MY,1683514312
291,gadzhiyevo,69.2551,33.3362,1.08,88,100,7.9,RU,1683514313
292,morehead city,34.7229,-76.726,21.68,84,20,8.75,US,1683514236
293,adamovka,51.5223,59.9396,8.74,44,100,7.59,RU,1683514313
294,karasu,41.071,30.7854,12.07,93,73,1.07,TR,1683514314
295,dakhla,23.6848,-15.958,18.14,84,2,10.82,EH,1683514314
296,papao,-17.75,-149.55,29.82,74,100,2.44,PF,1683514314
297,banamba,13.55,-7.45,29.07,46,100,3.01,ML,1683514315
298,visakhapatnam,17.69,83.2093,30.94,79,40,3.09,IN,1683514017
299,acarau,-2.8856,-40.12,25.29,83,68,3.46,BR,1683514315
300,taro,-8.3862,115.28,25.0,64,97,2.05,ID,1683514316
301,watampone,-4.5386,120.3279,26.32,89,99,2.54,ID,1683514316
302,christchurch,-43.5333,172.6333,24.07,60,37,5.66,NZ,1683514246
303,juankoski,63.0667,28.35,3.98,77,80,2.66,FI,1683514316
304,dingras,18.1032,120.6967,32.86,62,75,3.09,PH,1683514317
305,labrador city,52.9463,-66.9114,-1.05,74,100,4.63,CA,1683514317
306,cedeira,43.6797,-8.0209,15.15,84,100,3.22,ES,1683514317
307,ketchikan,55.3422,-131.6461,10.99,78,97,1.53,US,1683514318
308,oyama,36.3,139.8,11.9,79,100,2.93,JP,1683514318
309,ust-nera,64.5667,143.2,3.51,84,100,3.49,RU,1683514318
310,anna regina,7.2644,-58.5077,25.3,90,93,4.95,GY,1683514318
311,klyuchi,52.2667,79.1667,22.57,26,0,1.23,RU,1683514319
312,yatou,37.15,122.3833,19.04,35,100,4.31,CN,1683514319
313,bornu yassu,12.2774,12.5552,28.05,13,25,3.09,NG,1683514319
314,saint-paul,-21.0096,55.2707,24.06,85,100,0.69,RE,1683514320
315,guatrache,-37.6678,-63.5302,10.97,83,3,4.98,AR,1683514320
316,riosucio,5.4216,-75.7032,16.1,95,91,0.73,CO,1683514320
317,bulawayo,-20.15,28.5833,12.0,64,1,3.08,ZW,1683514321
318,pangkalpinang,-2.1333,106.1333,29.76,73,100,3.78,ID,1683514321
319,bama,11.5221,13.6856,28.84,18,65,0.83,NG,1683514321
320,merizo village,13.2658,144.6691,31.31,82,13,5.01,GU,1683514321
321,ribas do rio pardo,-20.4431,-53.7592,21.56,76,7,0.3,BR,1683514322
322,cabo san lucas,22.8909,-109.9124,28.17,40,75,5.14,MX,1683514223
323,viedma,-40.8135,-62.9967,13.69,79,100,6.07,AR,1683514322
324,dubbo,-32.25,148.6167,12.07,47,40,7.72,AU,1683514322
325,pijino del carmen,9.3291,-74.453,27.07,71,62,2.93,CO,1683514323
326,el hamma,33.8915,9.7963,23.02,54,100,8.28,TN,1683514323
327,dauphin,51.1494,-100.0502,15.08,51,100,4.63,CA,1683514323
328,velikiy ustyug,60.7644,46.3106,-0.2,81,60,3.0,RU,1683514323
329,cockburn town,21.4612,-71.1419,26.0,76,68,8.27,TC,1683514324
330,sicuani,-14.2694,-71.2261,5.48,96,100,1.57,PE,1683514324
331,borba,-4.3878,-59.5939,23.59,98,96,0.25,BR,1683514325
332,madalena,41.2162,-8.3345,14.7,90,94,0.6,PT,1683514325
333,kadugli,11.0167,29.7167,29.06,51,72,1.43,SD,1683514326
334,cross lanes,38.4204,-81.7907,17.81,94,91,0.89,US,1683514326
335,east london,-33.0153,27.9116,18.87,72,100,2.92,ZA,1683514326
336,pimentel,-6.8367,-79.9342,25.16,78,0,7.2,PE,1683514327
337,queenstown,-31.8976,26.8753,11.66,89,99,0.91,ZA,1683513898
338,sweetwater,25.7634,-80.3731,25.01,71,20,5.66,US,1683514327
339,lazaro cardenas,17.9583,-102.2,26.88,74,2,2.27,MX,1683514328
340,dunedin,-45.8742,170.5036,17.82,90,84,1.34,NZ,1683514328
341,belmonte,-15.8631,-38.8828,23.81,88,14,4.47,BR,1683514328
342,selfoss,63.9331,-20.9971,9.91,86,100,4.04,IS,1683514328
343,slawharad,53.4446,31.0014,-0.25,70,5,2.56,BY,1683514329
344,wynyard,-41.0,145.7167,14.43,75,100,5.85,AU,1683514329
345,manokwari,-0.8667,134.0833,28.88,75,98,3.98,ID,1683514329
346,oriximina,-1.7656,-55.8661,23.77,94,94,1.22,BR,1683514330
347,dickinson,29.4608,-95.0513,25.58,90,75,4.12,US,1683514321
348,mozarlandia,-14.7447,-50.5706,22.42,56,4,1.91,BR,1683514330
349,coronel fabriciano,-19.5186,-42.6289,18.02,82,0,0.51,BR,1683514331
350,igarka,67.4667,86.5833,-3.02,91,100,7.52,RU,1683514331
351,yuzhno-kurilsk,44.0306,145.8556,1.72,96,100,3.16,RU,1683514331
352,isiro,2.7739,27.616,18.24,98,44,0.5,CD,1683514331
353,thurso,58.5927,-3.5259,9.14,94,100,5.97,GB,1683514332
354,khandyga,62.6667,135.6,2.14,61,100,3.61,RU,1683514332
355,abadeh,31.1608,52.6506,17.04,12,16,2.24,IR,1683514333
356,fada n'gourma,12.0622,0.3578,29.02,52,99,4.17,BF,1683514333
357,ufa,54.775,56.0375,1.65,53,71,2.66,RU,1683514333
358,reguiba,33.5639,6.7033,27.03,34,20,8.23,DZ,1683514333
359,yicheng,31.3705,119.8703,18.8,50,79,3.6,CN,1683514334
360,bukama,-9.2,25.85,16.63,73,4,1.19,CD,1683514334
361,lerwick,60.1545,-1.1494,8.0,97,100,10.05,GB,1683514334
362,kenai,60.5544,-151.2583,7.3,78,100,5.66,US,1683514335
363,santa rosa de cabal,4.8681,-75.6214,20.58,73,20,5.14,CO,1683514335
364,dudinka,69.4058,86.1778,-7.43,81,100,5.84,RU,1683514335
365,iwanai,42.9744,140.5089,10.66,68,100,2.68,JP,1683514336
366,poso,-1.3959,120.7524,30.8,62,82,1.03,ID,1683514336
367,talcahuano,-36.7167,-73.1167,10.82,93,0,2.57,CL,1683514215
368,port arthur,38.8,121.2667,21.12,56,100,3.66,CN,1683514336
369,kapuskasing,49.4169,-82.4331,11.05,54,20,5.66,CA,1683514337
370,kununurra,-15.7667,128.7333,26.99,28,7,6.69,AU,1683514337
371,saint-pierre,-21.3393,55.4781,23.82,73,99,2.06,RE,1683514131
372,leh,34.1667,77.5833,-0.22,64,91,2.72,IN,1683514337
373,flying fish cove,-10.4217,105.6791,27.82,83,75,4.12,CX,1683514338
374,yanchep,-31.55,115.6833,22.01,39,100,7.42,AU,1683514338
375,salekhard,66.53,66.6019,-6.2,94,100,7.99,RU,1683514338
376,turhal,40.3875,36.0811,11.57,91,100,1.03,TR,1683514339
377,darhan,49.4867,105.9228,17.44,30,100,3.86,MN,1683514339
378,redwood falls,44.5394,-95.1169,20.97,46,20,2.57,US,1683514339
379,portland,45.5234,-122.6762,16.46,57,89,1.34,US,1683513971
380,kalemie,-5.9475,29.1947,21.0,85,1,1.09,CD,1683514340
381,salakhid,32.8727,36.5727,10.12,96,24,4.57,SY,1683514340
382,mount isa,-20.7333,139.5,20.87,23,4,5.14,AU,1683514340
383,jining,35.405,116.5814,22.56,22,100,3.67,CN,1683514340
384,nganjuk,-7.6051,111.9035,29.45,66,84,2.4,ID,1683514341
385,solwezi,-12.1688,26.3894,9.83,81,0,1.3,ZM,1683514341
386,mocimboa,-11.3167,40.35,21.69,91,9,3.48,MZ,1683514341
387,sheboygan falls,43.732,-87.8221,10.93,95,100,6.17,US,1683514342
388,san rafael,-34.6177,-68.3301,11.49,45,4,1.66,AR,1683514054
389,bracebridge,45.0334,-79.3163,10.49,100,100,2.06,CA,1683514342
390,koulikoro,14.0,-7.75,30.75,36,100,3.8,ML,1683514342
391,langepas,61.2544,75.2124,9.13,55,75,9.75,RU,1683514343
392,lyepyel',54.8814,28.6932,-0.09,64,3,1.62,BY,1683514343
393,mhamid,29.82,-5.72,26.15,19,68,6.62,MA,1683514344
394,road town,18.4167,-64.6167,27.05,83,40,5.14,VG,1683514287
395,pisco,-13.7,-76.2167,20.03,83,89,6.69,PE,1683514344
396,bardai,11.65,7.2333,25.08,24,95,3.13,NG,1683514344
397,jebba,9.1333,4.8333,26.08,78,97,1.8,NG,1683514345
398,mammoth lakes,37.6485,-118.9721,5.4,66,0,7.2,US,1683514345
399,garissa,-0.4536,39.6401,24.33,84,97,5.63,KE,1683514345
400,baiti,13.745,-14.7482,27.79,53,98,5.91,SN,1683514346
401,inhapim,-19.5492,-42.12,16.33,79,52,1.31,BR,1683514346
402,messaad,34.1543,3.5031,15.11,63,4,12.96,DZ,1683514346
403,newport,51.5877,-2.9984,12.65,90,100,3.22,GB,1683514346
404,grootfontein,-19.5667,18.1167,11.76,87,4,1.54,NA,1683514347
405,nagqu,31.5,92.0,6.33,17,33,8.46,CN,1683514347
406,gumdag,39.2061,54.5906,21.87,30,74,10.22,TM,1683514347
407,nanga eboko,4.6833,12.3667,18.78,94,100,0.51,CM,1683514347
408,magadan,59.5667,150.8,5.85,82,27,3.28,RU,1683514323
409,nizhniy odes,63.6445,54.856,-5.42,86,100,5.96,RU,1683514349
410,khorixas,-20.3667,14.9667,18.45,35,0,2.31,NA,1683514350
411,as sulayyil,20.4607,45.5779,25.14,15,42,1.84,SA,1683514350
412,plastun,44.7561,136.2939,13.22,44,38,3.89,RU,1683514351
413,palangkaraya,-2.2,113.8333,29.43,75,95,0.52,ID,1683514351
414,taltal,-25.4,-70.4833,17.56,69,0,1.54,CL,1683514220
415,baise city,23.8997,106.6133,21.7,81,100,1.39,CN,1683514352
416,kiruna,67.8557,20.2251,0.51,80,100,0.51,SE,1683514353
417,puerto maldonado,-12.6,-69.1833,21.61,100,100,0.64,PE,1683514353
418,la nucia,38.6137,-0.1269,17.23,71,11,1.12,ES,1683514354
419,bakchar,57.0186,82.0711,20.76,29,6,4.02,RU,1683514354
420,santa terezinha,-29.9002,-50.0904,19.58,93,100,3.08,BR,1683514354
421,bubaque,11.2833,-15.8333,26.29,80,100,4.43,GW,1683514355
422,sao gabriel da cachoeira,-0.1303,-67.0892,23.18,98,58,0.54,BR,1683514355
423,rivne,50.6231,26.2274,3.37,96,100,5.18,UA,1683514355
424,fortuna,40.5982,-124.1573,14.25,67,100,2.68,US,1683514355
425,remire-montjoly,4.9167,-52.2667,25.02,100,100,0.51,GF,1683514106
426,aasiaat,68.7098,-52.8699,-2.61,83,95,4.21,GL,1683514356
427,ofunato,39.0717,141.7167,6.73,81,100,3.26,JP,1683514356
428,bolderaja,57.0313,24.0557,0.55,86,0,1.03,LV,1683514357
429,tsiombe,-25.3,45.4833,19.41,80,0,1.93,MG,1683514357
430,thunder bay,48.4001,-89.3168,7.99,87,100,0.0,CA,1683514136
431,valdez,1.2492,-78.9831,27.54,85,100,1.95,EC,1683514357
432,berezovyy,51.6667,135.7,18.49,23,6,2.42,RU,1683514358
433,akureyri,65.6835,-18.0878,9.96,66,63,2.57,IS,1683514358
434,kouroussa,10.65,-9.8833,27.0,59,100,0.55,GN,1683514358
435,fort st. john,56.2499,-120.8529,9.94,71,75,6.69,CA,1683514311
436,olyokminsk,60.3736,120.4264,2.68,50,85,3.42,RU,1683514359
437,catanduva,-21.1378,-48.9728,19.99,70,84,2.95,BR,1683514359
438,pratt,37.6439,-98.7376,26.34,50,0,3.6,US,1683514114
439,katra,32.9833,74.95,16.72,71,100,5.13,IN,1683514116
440,shira,54.4911,89.9531,18.2,33,7,0.71,RU,1683514360
441,kotturu,14.8167,76.2167,26.09,61,91,3.12,IN,1683514360
442,darab,28.7519,54.5444,24.23,12,1,1.05,IR,1683514360
443,ivdel',60.6911,60.4206,-0.31,55,75,6.23,RU,1683514360
444,bamboo flat,11.7,92.7167,30.77,67,100,1.19,IN,1683514361
445,minot air force base,48.4209,-101.3391,13.05,85,100,4.12,US,1683514361
446,corabia,43.7833,24.5,10.32,78,91,2.17,RO,1683514361
447,zhangjiakou shi xuanhua qu,40.6103,115.0447,20.99,12,25,0.62,CN,1683514362
448,saks,33.6987,-85.8397,21.16,87,0,0.0,US,1683514362
449,gulf shores,30.246,-87.7008,23.37,77,100,3.6,US,1683514144
450,waddan,29.1614,16.139,20.98,25,95,4.02,LY,1683514362
451,taulaga,-11.0553,-171.0883,28.73,75,79,4.99,AS,1683514363
452,hasaki,35.7333,140.8333,12.9,87,100,13.52,JP,1683514363
453,piacabucu,-10.4056,-36.4344,25.33,82,59,3.17,BR,1683514363
454,medak,18.0333,78.2667,31.11,51,8,2.93,IN,1683514364
455,isangel,-19.55,169.2667,29.06,79,20,2.06,VU,1683514364
456,takoradi,4.8845,-1.7554,26.63,80,100,1.26,GH,1683514242
457,mar del plata,-38.0023,-57.5575,14.49,95,100,7.6,AR,1683514364
458,celestun,20.8667,-90.4,27.88,74,37,8.33,MX,1683514365
459,barberton,-25.7884,31.0532,16.21,97,100,0.8,ZA,1683514365
460,campoverde,-8.4753,-74.8058,26.83,99,50,0.73,PE,1683514365
461,rovaniemi,66.5,25.7167,-0.33,100,100,4.63,FI,1683514113
462,san clemente,33.427,-117.612,17.92,78,0,7.15,US,1683514366
463,gao,16.6362,1.637,30.14,25,74,1.65,ML,1683514366
464,ubaira,-13.2681,-39.6628,20.0,98,15,1.16,BR,1683514367
465,castillos,-34.1667,-53.8333,12.67,91,61,2.85,UY,1683514367
466,lubang,13.8584,120.124,28.98,74,2,3.02,PH,1683514367
467,frechen,50.9167,6.8167,15.46,91,75,1.03,DE,1683514368
468,umm kaddadah,13.6017,26.6876,25.32,16,96,3.74,SD,1683514368
469,aripuana,-9.1667,-60.6333,23.12,98,100,0.35,BR,1683514368
470,adelanto,34.5828,-117.4092,16.22,59,0,5.3,US,1683514368
471,springs,-26.25,28.4,11.48,98,98,5.44,ZA,1683514369
472,sao vicente,-23.9631,-46.3919,25.15,26,72,1.29,BR,1683514164
473,jayapura,-2.5333,140.7,32.66,70,37,2.48,ID,1683514369
474,nikolayevsk-on-amure,53.1406,140.73,15.21,39,1,1.88,RU,1683514370
475,albu kamal,34.45,40.9186,19.11,54,0,3.79,SY,1683514370
476,sao jose da coroa grande,-8.8978,-35.1478,25.1,78,9,2.26,BR,1683514370
477,ixtapa,20.7,-105.2,26.79,78,0,0.0,MX,1683514371
478,okhotsk,59.3833,143.3,3.34,77,37,4.26,RU,1683514371
479,fisterra,42.9049,-9.2629,15.42,83,100,2.77,ES,1683514372
480,ilfracombe,51.2093,-4.1134,12.14,94,100,4.02,GB,1683514372
481,port shepstone,-30.7414,30.455,18.1,80,100,3.18,ZA,1683514372
482,zhanaozen,43.3,52.8,18.26,38,100,5.79,KZ,1683514373
483,darwin,-12.4611,130.8418,31.05,36,0,7.2,AU,1683514063
484,howrah,22.5892,88.3103,33.0,66,0,4.12,IN,1683514373
485,cidreira,-30.1811,-50.2056,19.64,95,100,3.24,BR,1683514374
486,rawson,-43.3002,-65.1023,11.24,65,75,3.84,AR,1683514374
487,idri,27.5,13.2667,23.12,21,100,3.78,LY,1683514375
488,tomohon,1.3346,124.8392,25.52,66,100,2.16,ID,1683514375
489,xining,36.6167,101.7667,7.7,76,100,2.37,CN,1683514375
490,praia,14.9215,-23.5087,22.3,78,40,6.69,CV,1683514376
491,ceelbuur,4.685,46.6176,25.33,74,8,6.7,SO,1683514376
492,luorong,24.4058,109.6086,18.34,80,100,4.06,CN,1683514376
493,langarud,37.197,50.1535,17.03,75,100,0.9,IR,1683514376
494,juneau,58.3019,-134.4197,12.0,100,75,5.14,US,1683514151
495,itaituba,-4.2761,-55.9836,24.53,94,100,0.72,BR,1683514377
496,tokar,18.4254,37.729,25.68,59,0,3.63,SD,1683514377
497,hauterive,46.0901,3.4459,12.42,94,86,0.75,FR,1683514378
498,port augusta,-32.5,137.7667,15.92,44,39,6.7,AU,1683514378
499,mata-utu,-13.2816,-176.1745,28.61,75,12,5.08,WF,1683514378
500,bloemfontein,-29.1211,26.214,10.71,93,89,1.54,ZA,1683514378
501,callao,-12.0667,-77.15,22.62,78,40,6.69,PE,1683514379
502,ben mehidi,36.7697,7.9064,17.99,94,75,3.09,DZ,1683514379
503,diamantina,-18.2494,-43.6003,13.46,87,2,2.21,BR,1683514379
504,beberibe,-4.1797,-38.1306,25.92,83,24,3.01,BR,1683514380
505,turpan,42.9333,89.1667,19.95,18,54,2.31,CN,1683514380
506,north bend,43.4065,-124.2243,12.36,79,100,3.6,US,1683514380
507,kurchatov,51.6601,35.6521,3.23,67,100,4.46,RU,1683514380
508,singkawang,0.9,109.0,31.71,61,74,2.71,ID,1683514381
509,salalah,17.0151,54.0924,26.05,65,0,1.03,OM,1683514381
510,casas grandes,30.3667,-107.95,19.27,11,0,4.58,MX,1683514381
511,regina,50.4501,-104.6178,14.06,53,75,2.57,CA,1683513763
512,lodwar,3.1191,35.5973,26.9,62,78,3.78,KE,1683514382
513,sai buri,6.7013,101.6168,36.65,62,100,1.19,TH,1683514382
514,sablayan,12.8346,120.769,29.55,74,8,4.17,PH,1683514382
515,codrington,-38.2667,141.9667,13.75,75,83,7.09,AU,1683514383
516,san luis,-33.295,-66.3356,13.18,45,63,3.44,AR,1683514383
517,san sebastian de la gomera,28.0916,-17.1133,23.2,43,0,6.69,ES,1683514383
518,bocaiuva,-17.1078,-43.815,19.84,73,0,2.9,BR,1683514384
519,mel'nikovo,56.5558,84.085,21.05,28,5,3.32,RU,1683514384
520,sinaloa de leyva,25.8333,-108.2333,28.56,16,79,3.28,MX,1683514384
521,las cruces,32.3123,-106.7783,26.42,10,0,2.57,US,1683514384
522,ariguani,10.25,-74.0,26.42,71,71,1.41,CO,1683514385
523,hastings,50.8552,0.5729,11.4,50,100,3.43,GB,1683514385
524,bratsk,56.1325,101.6142,14.27,47,7,2.06,RU,1683514385
525,happy valley-goose bay,53.3168,-60.3315,0.17,93,100,1.54,CA,1683514386
526,middleton,53.55,-2.2,13.28,83,100,2.77,GB,1683514273
527,chui,-33.6971,-53.4616,13.71,92,89,2.81,UY,1683514341
528,ribnitz-damgarten,54.25,12.4667,6.73,59,5,3.91,DE,1683514386
529,impfondo,1.6381,18.0667,19.61,96,89,1.11,CG,1683514387
530,abbeville,50.1,1.8333,11.81,95,71,2.0,FR,1683514314
531,touros,-5.1989,-35.4608,25.4,85,9,4.76,BR,1683514099
532,mumford,5.2618,-0.759,27.18,76,100,2.1,GH,1683514387
533,cadale,2.7603,46.3222,26.93,83,6,8.45,SO,1683514388
534,colombo,6.9319,79.8478,26.97,75,94,2.34,LK,1683514388
535,rouyn-noranda,48.2398,-79.0288,11.05,46,0,5.14,CA,1683514142
536,inarajan village,13.2736,144.7484,31.54,82,19,5.23,GU,1683514389
537,torit,4.4133,32.5678,22.29,81,12,1.48,SS,1683514389
538,cromer,52.9312,1.2989,11.19,92,94,3.7,GB,1683514389
539,ta`u,-14.2336,-169.5144,27.8,74,36,5.0,AS,1683514390
540,oppdal,62.5943,9.6912,1.16,70,17,3.36,NO,1683514390
541,port saint john's,-31.6229,29.5448,18.06,93,100,2.07,ZA,1683514390
542,skeldon,5.8833,-57.1333,24.42,95,100,3.34,GY,1683514391
543,mersa matruh,31.3525,27.2453,16.11,88,40,3.09,EG,1683514391
544,saurimo,-9.6608,20.3916,16.22,66,13,1.85,AO,1683514392
545,dryden,49.7833,-92.7503,8.16,93,100,5.66,CA,1683514392
546,pocito,-31.6833,-68.5833,17.55,37,11,5.33,AR,1683514392
547,vila franca do campo,37.7167,-25.4333,18.23,95,96,5.51,PT,1683514392
548,williston,48.147,-103.618,12.24,76,100,0.45,US,1683514393
549,andergrove,-21.0833,149.1833,24.8,49,0,8.38,AU,1683514393
550,mount pearl,47.5166,-52.7813,4.19,73,75,9.77,CA,1683514393
551,severo-yeniseyskiy,60.3725,93.0408,13.28,68,94,4.04,RU,1683514394
552,erenhot,43.6475,111.9767,17.36,15,96,1.0,CN,1683514395
553,andovoranto,-18.95,49.1,20.86,92,36,3.08,MG,1683514396
554,cobija,-11.0267,-68.7692,21.63,99,100,0.59,BO,1683514397
555,kerimaki,61.9167,29.2833,0.97,80,0,1.03,FI,1683514397
556,buzuluk,52.7807,52.2635,5.29,48,100,3.99,RU,1683514397
557,lorain,41.3334,-82.1499,20.05,82,0,3.09,US,1683514398
558,taiobeiras,-15.8078,-42.2331,15.53,90,32,1.14,BR,1683514275
559,hadibu,12.65,54.0333,28.02,58,13,1.4,YE,1683514398
560,chilecito,-29.1619,-67.4974,14.56,56,0,1.7,AR,1683513673
561,floro,61.5996,5.0328,10.04,57,100,5.66,NO,1683514399
562,mabama,-5.1333,32.5333,18.28,80,65,2.15,TZ,1683514399
563,bereket,39.2446,55.5154,21.21,34,12,9.37,TM,1683514399
564,sinazongwe,-17.2614,27.4618,18.75,58,23,2.33,ZM,1683514400
565,shingu,33.7333,135.9833,19.19,52,8,3.58,JP,1683514400
566,atherton,53.5237,-2.4935,12.94,83,100,0.89,GB,1683514400
567,lethbridge,49.7,-112.8186,15.54,62,75,3.09,CA,1683514157
568,cabedelo,-6.9811,-34.8339,25.37,85,43,4.55,BR,1683514401
569,karak city,31.1637,35.762,11.4,82,0,2.43,JO,1683514401
570,joshimath,30.5667,79.5667,16.5,37,6,0.96,IN,1683514401
571,leava,-14.3,-178.1667,28.6,74,9,3.45,WF,1683514402
572,alaghsas,17.0187,8.0168,26.63,9,100,4.17,NE,1683514402
573,pitimbu,-7.4706,-34.8086,25.33,85,23,4.41,BR,1683514402
574,nelson,-41.2833,173.2833,17.94,99,100,0.45,NZ,1683514403
575,rio grande,-32.035,-52.0986,16.74,91,100,6.0,BR,1683514403
